"zip","id","formattedAddress","addressLine1","addressLine2","city","state","zipCode","county","latitude","longitude","propertyType","listingType","bedrooms","bathrooms","squareFootage","lotSize","yearBuilt","status","price","listedDate","removedDate","daysOnMarket"
"1","4669-Point-Pleasant-Dr,-Hilliard,-OH-43026","4669 Point Pleasant Dr, Hilliard, OH 43026","4669 Point Pleasant Dr",NA,"Hilliard","OH","43026","Franklin",40.0204,-83.1388,"Single Family","Standard",3,1.5,1200,NA,NA,"Active",1700,"2025-09-03T00:00:00.000Z","list()",1
"1","3300-Darby-Glen-Blvd,-Hilliard,-OH-43026","3300 Darby Glen Blvd, Hilliard, OH 43026","3300 Darby Glen Blvd",NA,"Hilliard","OH","43026","Franklin",40.02,-83.1323,"Single Family","Standard",3,2.5,1382,NA,1995,"Active",2340,"2025-09-03T00:00:00.000Z","list()",1
"1","5067-Stoneybrook-Blvd,-Hilliard,-OH-43026","5067 Stoneybrook Blvd, Hilliard, OH 43026","5067 Stoneybrook Blvd",NA,"Hilliard","OH","43026","Franklin",40.0166,-83.1467,"Townhouse","Standard",2,1.5,1004,NA,NA,"Active",1600,"2025-09-03T00:00:00.000Z","list()",1
"1","2965-Brookwell-Dr,-Hilliard,-OH-43026","2965 Brookwell Dr, Hilliard, OH 43026","2965 Brookwell Dr",NA,"Hilliard","OH","43026","Franklin",40.0033,-83.1678,"Single Family","Standard",3,2.5,1452,NA,NA,"Active",2565,"2025-09-03T00:00:00.000Z","list()",1
"1","5364-Whirlwind-Cove-Dr,-Hilliard,-OH-43026","5364 Whirlwind Cove Dr, Hilliard, OH 43026","5364 Whirlwind Cove Dr",NA,"Hilliard","OH","43026","Franklin",40.0056,-83.1519,"Single Family","Standard",3,2.5,NA,NA,NA,"Active",2480,"2025-09-03T00:00:00.000Z","list()",1
"1","5011-Hidden-View-Dr,-Hilliard,-OH-43026","5011 Hidden View Dr, Hilliard, OH 43026","5011 Hidden View Dr",NA,"Hilliard","OH","43026","Franklin",40.0067,-83.1422,"Single Family","Standard",3,2.5,1248,NA,NA,"Active",2410,"2025-09-03T00:00:00.000Z","list()",1
"1","1812-Bennigan-Dr,-Hilliard,-OH-43026","1812 Bennigan Dr, Hilliard, OH 43026","1812 Bennigan Dr",NA,"Hilliard","OH","43026","Franklin",39.988,-83.1558,"Apartment","Standard",2,1.5,1024,NA,NA,"Active",1749,"2025-09-03T00:00:00.000Z","list()",1
"1","4821-Lady-Jane-Ave,-Hilliard,-OH-43026","4821 Lady Jane Ave, Hilliard, OH 43026","4821 Lady Jane Ave",NA,"Hilliard","OH","43026","Franklin",40.0501,-83.1602,"Townhouse","Standard",3,2.5,1504,NA,NA,"Active",1900,"2025-09-03T00:00:00.000Z","list()",1
"1","5368-Davidson-Rd,-Hilliard,-OH-43026","5368 Davidson Rd, Hilliard, OH 43026","5368 Davidson Rd",NA,"Hilliard","OH","43026","Franklin",40.048,-83.1637,"Single Family","Standard",4,2.5,2034,NA,NA,"Active",2790,"2025-09-03T00:00:00.000Z","list()",1
"1","2800-Pheasant-Field-Dr,-Hilliard,-OH-43026","2800 Pheasant Field Dr, Hilliard, OH 43026","2800 Pheasant Field Dr",NA,"Hilliard","OH","43026","Franklin",40.0083,-83.1754,"Single Family","Standard",4,2.5,1729,NA,NA,"Active",2950,"2025-09-03T00:00:00.000Z","list()",1
"1","4149-Wayne-St,-Apt-3,-Hilliard,-OH-43026","4149 Wayne St, Apt 3, Hilliard, OH 43026","4149 Wayne St","Apt 3","Hilliard","OH","43026","Franklin",40.0366,-83.1588,"Apartment","Standard",2,2,775,13504,1959,"Active",1050,"2025-09-03T00:00:00.000Z","list()",1
"1","4609-Paxton-Dr-S,-Hilliard,-OH-43026","4609 Paxton Dr S, Hilliard, OH 43026","4609 Paxton Dr S",NA,"Hilliard","OH","43026","Franklin",40.022,-83.1374,"Single Family","Standard",4,1.5,1308,NA,NA,"Active",2715,"2023-06-22T00:00:00.000Z","list()",805
"1","5689-Andrea-Ln,-Hilliard,-OH-43026","5689 Andrea Ln, Hilliard, OH 43026","5689 Andrea Ln",NA,"Hilliard","OH","43026","Franklin",39.9927,-83.1577,"Single Family","Standard",3,1,900,NA,NA,"Active",2000,"2023-10-20T00:00:00.000Z","list()",685
"1","2726-Anderson-Dr,-Hilliard,-OH-43026","2726 Anderson Dr, Hilliard, OH 43026","2726 Anderson Dr",NA,"Hilliard","OH","43026","Franklin",40.0061,-83.1763,"Single Family","Standard",4,4,3450,NA,NA,"Active",3500,"2023-11-21T00:00:00.000Z","list()",653
"1","2967-Honeysuckle-Ln,-Hilliard,-OH-43026","2967 Honeysuckle Ln, Hilliard, OH 43026","2967 Honeysuckle Ln",NA,"Hilliard","OH","43026","Franklin",40.0113,-83.1635,"Single Family","Standard",4,3,2513,NA,1993,"Active",3400,"2024-03-15T00:00:00.000Z","list()",538
"1","5586-Edie-Dr,-Hilliard,-OH-43026","5586 Edie Dr, Hilliard, OH 43026","5586 Edie Dr",NA,"Hilliard","OH","43026","Franklin",40.0523,-83.1675,"Single Family","Standard",4,2.5,2040,NA,NA,"Active",2695,"2024-06-25T00:00:00.000Z","list()",436
"1","7711-Hayden-Run-Rd,-Hilliard,-OH-43026","7711 Hayden Run Rd, Hilliard, OH 43026","7711 Hayden Run Rd",NA,"Hilliard","OH","43026","Franklin",40.0584,-83.2071,"Single Family","Standard",4,2.5,2640,140699,1950,"Active",3400,"2025-05-28T00:00:00.000Z","list()",99
"1","5022-Stoneybrook-Blvd,-Unit-8B,-Hilliard,-OH-43026","5022 Stoneybrook Blvd, Unit 8B, Hilliard, OH 43026","5022 Stoneybrook Blvd","Unit 8B","Hilliard","OH","43026","Franklin",40.0172,-83.1458,"Condo","Standard",2,1.5,832,436,1989,"Active",1650,"2025-07-14T00:00:00.000Z","list()",52
"1","2958-Badger-Dr,-Hilliard,-OH-43026","2958 Badger Dr, Hilliard, OH 43026","2958 Badger Dr",NA,"Hilliard","OH","43026","Franklin",40.0123,-83.1439,"Single Family","Standard",3,1.5,1412,NA,NA,"Active",2390,"2025-07-25T00:00:00.000Z","list()",41
"1","5608-Maple-Dell-Ct,-Hilliard,-OH-43026","5608 Maple Dell Ct, Hilliard, OH 43026","5608 Maple Dell Ct",NA,"Hilliard","OH","43026","Franklin",40.0419,-83.1689,"Single Family","Standard",4,2.5,2654,NA,NA,"Active",3499,"2025-07-25T00:00:00.000Z","list()",41
"1","2131-Ripple-Rd,-Hilliard,-OH-43026","2131 Ripple Rd, Hilliard, OH 43026","2131 Ripple Rd",NA,"Hilliard","OH","43026","Franklin",39.995,-83.1652,"Single Family","Standard",3,2.5,1792,5227,2002,"Active",2660,"2025-07-26T00:00:00.000Z","list()",40
"1","5863-Scioto-Darby-Rd,-Hilliard,-OH-43026","5863 Scioto Darby Rd, Hilliard, OH 43026","5863 Scioto Darby Rd",NA,"Hilliard","OH","43026","Franklin",40.0311,-83.1665,"Apartment","Standard",1,1,608,NA,2003,"Active",1226,"2025-02-14T00:00:00.000Z","list()",202
"1","1794-Bennigan-Dr,-Unit-132D,-Hilliard,-OH-43026","1794 Bennigan Dr, Unit 132D, Hilliard, OH 43026","1794 Bennigan Dr","Unit 132D","Hilliard","OH","43026","Franklin",39.9874,-83.1554,"Condo","Standard",2,2,1240,436,1997,"Active",1995,"2025-08-11T00:00:00.000Z","list()",24
"1","3390-Smileys-Cor,-Hilliard,-OH-43026","3390 Smileys Cor, Hilliard, OH 43026","3390 Smileys Cor",NA,"Hilliard","OH","43026","Franklin",40.0232,-83.1124,"Condo","Standard",2,2,1152,436,1988,"Active",1450,"2025-08-13T00:00:00.000Z","list()",22
"1","3251-Foxpoint-Dr,-Hilliard,-OH-43026","3251 Foxpoint Dr, Hilliard, OH 43026","3251 Foxpoint Dr",NA,"Hilliard","OH","43026","Franklin",40.0176,-83.1562,"Single Family","Standard",4,2.5,1630,10019,1991,"Active",2600,"2025-08-18T00:00:00.000Z","list()",17
"1","4833-King-Albert-Dr,-Unit-3B,-Hilliard,-OH-43026","4833 King Albert Dr, Unit 3B, Hilliard, OH 43026","4833 King Albert Dr","Unit 3B","Hilliard","OH","43026","Franklin",40.0504,-83.1597,"Single Family","Standard",3,2.5,1344,NA,1989,"Active",2000,"2025-08-20T00:00:00.000Z","list()",15
"1","4667-4669-Point-Pleasant-Dr,-Hilliard,-OH-43026","4667-4669 Point Pleasant Dr, Hilliard, OH 43026","4667-4669 Point Pleasant Dr",NA,"Hilliard","OH","43026","Franklin",40.0204,-83.1388,"Apartment","Standard",3,1.5,1200,NA,NA,"Active",1700,"2025-08-23T00:00:00.000Z","list()",12
"1","1812-Bennigan-Dr,-Unit-88C,-Hilliard,-OH-43026","1812 Bennigan Dr, Unit 88C, Hilliard, OH 43026","1812 Bennigan Dr","Unit 88C","Hilliard","OH","43026","Franklin",39.988,-83.1558,"Condo","Standard",2,1.5,NA,NA,NA,"Active",1749,"2025-08-25T00:00:00.000Z","list()",10
"1","4455-Condor-Dr,-Hilliard,-OH-43026","4455 Condor Dr, Hilliard, OH 43026","4455 Condor Dr",NA,"Hilliard","OH","43026","Franklin",40.0162,-83.1756,"Apartment","Standard",0,1,545,NA,NA,"Active",1302,"2025-03-18T00:00:00.000Z","list()",170
"1","6373-Meadows-Way,-Hilliard,-OH-43026","6373 Meadows Way, Hilliard, OH 43026","6373 Meadows Way",NA,"Hilliard","OH","43026","Franklin",40.0041,-83.1796,"Apartment","Standard",1,1,780,NA,2012,"Active",1295,"2024-04-12T00:00:00.000Z","list()",510
"1","2383-Silvercrest-Ln,-Hilliard,-OH-43026","2383 Silvercrest Ln, Hilliard, OH 43026","2383 Silvercrest Ln",NA,"Hilliard","OH","43026","Franklin",40.0004,-83.155,"Apartment","Standard",1,1,700,NA,NA,"Active",1129,"2024-04-12T00:00:00.000Z","list()",510
"1","3415-Durban-St,-Hilliard,-OH-43026","3415 Durban St, Hilliard, OH 43026","3415 Durban St",NA,"Hilliard","OH","43026","Franklin",40.021,-83.1623,"Apartment","Standard",1,1,730,NA,1997,"Active",1373,"2025-01-10T00:00:00.000Z","list()",237
"1","2485-Hilliard-Park-Blvd,-Hilliard,-OH-43026","2485 Hilliard Park Blvd, Hilliard, OH 43026","2485 Hilliard Park Blvd",NA,"Hilliard","OH","43026","Franklin",40.0019,-83.1437,"Apartment","Standard",2,2,1060,NA,2000,"Active",1401,"2024-04-12T00:00:00.000Z","list()",510
"1","1745-Sledge-Dr,-Hilliard,-OH-43026","1745 Sledge Dr, Hilliard, OH 43026","1745 Sledge Dr",NA,"Hilliard","OH","43026","Franklin",39.9865,-83.1767,"Apartment","Standard",1,1,794,NA,2023,"Active",1543,"2024-11-28T00:00:00.000Z","list()",280
"1","4663-Crystal-Ball-Dr,-Hilliard,-OH-43026","4663 Crystal Ball Dr, Hilliard, OH 43026","4663 Crystal Ball Dr",NA,"Hilliard","OH","43026","Franklin",40.0465,-83.1532,"Apartment","Standard",1,1,860,NA,1989,"Active",1204,"2024-11-12T00:00:00.000Z","list()",296
"1","5260-Franklin-St,-Hilliard,-OH-43026","5260 Franklin St, Hilliard, OH 43026","5260 Franklin St",NA,"Hilliard","OH","43026","Franklin",40.031,-83.1566,"Apartment","Standard",1,1,673,NA,2016,"Active",1353,"2025-09-02T00:00:00.000Z","list()",2
"1","2948-Collier-Hill-Ct,-Hilliard,-OH-43026","2948 Collier Hill Ct, Hilliard, OH 43026","2948 Collier Hill Ct",NA,"Hilliard","OH","43026","Franklin",40.0114,-83.1679,"Single Family","Standard",4,2.5,3000,NA,NA,"Active",3000,"2025-09-02T00:00:00.000Z","list()",2
"1","4460-Mountain-Laurel-Rd,-Hilliard,-OH-43026","4460 Mountain Laurel Rd, Hilliard, OH 43026","4460 Mountain Laurel Rd",NA,"Hilliard","OH","43026","Franklin",40.0442,-83.1375,"Apartment","Standard",1,1,659,NA,2017,"Active",1304,"2024-04-12T00:00:00.000Z","list()",510
"1","3398-Fishinger-Mill-Dr,-Hilliard,-OH-43026","3398 Fishinger Mill Dr, Hilliard, OH 43026","3398 Fishinger Mill Dr",NA,"Hilliard","OH","43026","Franklin",40.0235,-83.1102,"Condo","Standard",2,2,1152,NA,NA,"Active",1850,"2025-09-02T00:00:00.000Z","list()",1
"1","5826-Wooden-Plank-Rd,-Hilliard,-OH-43026","5826 Wooden Plank Rd, Hilliard, OH 43026","5826 Wooden Plank Rd",NA,"Hilliard","OH","43026","Franklin",39.9901,-83.1643,"Single Family","Standard",4,2.5,2092,NA,NA,"Active",2850,"2025-09-02T00:00:00.000Z","list()",1
"1","5841-Privilege-Dr,-Hilliard,-OH-43026","5841 Privilege Dr, Hilliard, OH 43026","5841 Privilege Dr",NA,"Hilliard","OH","43026","Franklin",40.0172,-83.172,"Single Family","Standard",3,2.5,1782,NA,2003,"Active",2490,"2025-09-02T00:00:00.000Z","list()",1
"1","5322-Batten-St,-Hilliard,-OH-43026","5322 Batten St, Hilliard, OH 43026","5322 Batten St",NA,"Hilliard","OH","43026","Franklin",40.0609,-83.1559,"Apartment","Standard",2,2,NA,NA,NA,"Active",5070,"2024-04-03T00:00:00.000Z","list()",518
"1","5069-Aldersgate-Dr,-Hilliard,-OH-43026","5069 Aldersgate Dr, Hilliard, OH 43026","5069 Aldersgate Dr",NA,"Hilliard","OH","43026","Franklin",40.0581,-83.1559,"Apartment","Standard",2,2,NA,NA,NA,"Active",5970,"2025-01-30T00:00:00.000Z","list()",216
"1","5101-Aldersgate-Dr,-Hilliard,-OH-43026","5101 Aldersgate Dr, Hilliard, OH 43026","5101 Aldersgate Dr",NA,"Hilliard","OH","43026","Franklin",40.0579,-83.1567,"Apartment","Standard",2,2,NA,NA,NA,"Active",5970,"2025-01-30T00:00:00.000Z","list()",216
"1","5111-Aldersgate-Dr,-Hilliard,-OH-43026","5111 Aldersgate Dr, Hilliard, OH 43026","5111 Aldersgate Dr",NA,"Hilliard","OH","43026","Franklin",40.0578,-83.157,"Apartment","Standard",1,1,NA,NA,NA,"Active",4170,"2025-01-30T00:00:00.000Z","list()",216
"1","4623-Lowell-Ln,-Hilliard,-OH-43026","4623 Lowell Ln, Hilliard, OH 43026","4623 Lowell Ln",NA,"Hilliard","OH","43026","Franklin",40.0639,-83.1408,"Apartment","Standard",2,2,NA,NA,NA,"Active",4770,"2025-04-29T00:00:00.000Z","list()",127
"1","4700-Lowell-Ln,-Hilliard,-OH-43026","4700 Lowell Ln, Hilliard, OH 43026","4700 Lowell Ln",NA,"Hilliard","OH","43026","Franklin",40.0636,-83.1416,"Apartment","Standard",1,1,NA,NA,NA,"Active",4170,"2025-04-29T00:00:00.000Z","list()",127
"1","2155-Ripple-Rd,-Hilliard,-OH-43026","2155 Ripple Rd, Hilliard, OH 43026","2155 Ripple Rd",NA,"Hilliard","OH","43026","Franklin",39.9955,-83.1652,"Single Family","Standard",3,2.5,1769,NA,2002,"Inactive",2305,"2025-08-31T00:00:00.000Z","2025-09-01T00:00:00.000Z",1
"1","5064-Cashion-Dr,-Hilliard,-OH-43026","5064 Cashion Dr, Hilliard, OH 43026","5064 Cashion Dr",NA,"Hilliard","OH","43026","Franklin",40.0149,-83.1462,"Single Family","Standard",3,2,1212,NA,NA,"Inactive",2195,"2025-07-29T00:00:00.000Z","2025-08-30T00:00:00.000Z",32
"1","6724-Cat-Singer-Cir,-Hilliard,-OH-43026","6724 Cat Singer Cir, Hilliard, OH 43026","6724 Cat Singer Cir",NA,"Hilliard","OH","43026","Franklin",40.0511,-83.1978,"Single Family","Standard",3,2,1862,6534,2019,"Inactive",2750,"2025-08-04T00:00:00.000Z","2025-08-27T00:00:00.000Z",23
"1","5098-Stoneybrook-Blvd,-Hilliard,-OH-43026","5098 Stoneybrook Blvd, Hilliard, OH 43026","5098 Stoneybrook Blvd",NA,"Hilliard","OH","43026","Franklin",40.017,-83.1475,"Townhouse","Standard",2,1.5,1130,NA,NA,"Inactive",1600,"2025-08-20T00:00:00.000Z","2025-08-21T00:00:00.000Z",1
"1","2155-Ripple-Roadhilliard,-Null,-OH-43026","2155 Ripple Roadhilliard, Null, OH 43026","2155 Ripple Roadhilliard",NA,"Null","OH","43026","Franklin",39.9955,-83.1652,"Single Family","Standard",3,2.5,1769,NA,NA,"Inactive",1875,"2025-08-11T00:00:00.000Z","2025-08-20T00:00:00.000Z",9
"1","5364-Whirlwind-Cove-Dr,-Columbus,-OH-43026","5364 Whirlwind Cove Dr, Columbus, OH 43026","5364 Whirlwind Cove Dr",NA,"Columbus","OH","43026","Franklin",40.0056,-83.1519,"Single Family","Standard",3,2.5,1490,NA,NA,"Inactive",2345,"2025-08-16T00:00:00.000Z","2025-08-18T00:00:00.000Z",2
"1","3622-Switchgrass-Ct,-Hilliard,-OH-43026","3622 Switchgrass Ct, Hilliard, OH 43026","3622 Switchgrass Ct",NA,"Hilliard","OH","43026","Franklin",40.0244,-83.1894,"Single Family","Standard",4,2.5,3321,15246,2020,"Inactive",3500,"2025-06-30T00:00:00.000Z","2025-08-14T00:00:00.000Z",45
"1","4911-Claymill-Dr,-Hilliard,-OH-43026","4911 Claymill Dr, Hilliard, OH 43026","4911 Claymill Dr",NA,"Hilliard","OH","43026","Franklin",40.0399,-83.1496,"Single Family","Standard",3,3,2469,8712,1997,"Inactive",3300,"2025-07-17T00:00:00.000Z","2025-08-10T00:00:00.000Z",24
"1","5652-Roberts-Rd,-Hilliard,-OH-43026","5652 Roberts Rd, Hilliard, OH 43026","5652 Roberts Rd",NA,"Hilliard","OH","43026","Franklin",40.0048,-83.1592,"Apartment","Standard",3,2.5,1682,NA,NA,"Inactive",2380,"2025-07-04T00:00:00.000Z","2025-08-10T00:00:00.000Z",37
"1","2332-Asics-Rd,-Hilliard,-OH-43026","2332 Asics Rd, Hilliard, OH 43026","2332 Asics Rd",NA,"Hilliard","OH","43026","Franklin",39.999,-83.1519,"Apartment","Standard",1,1,600,NA,NA,"Inactive",1079,"2024-11-12T00:00:00.000Z","2025-08-07T00:00:00.000Z",268
"1","2640-Lakebridge-Ln,-Hilliard,-OH-43026","2640 Lakebridge Ln, Hilliard, OH 43026","2640 Lakebridge Ln",NA,"Hilliard","OH","43026","Franklin",40.0005,-83.1665,"Apartment","Standard",1,1,880,NA,1998,"Inactive",1175,"2024-06-11T00:00:00.000Z","2025-08-07T00:00:00.000Z",422
"1","1552-Jupiter-Ave,-Hilliard,-OH-43026","1552 Jupiter Ave, Hilliard, OH 43026","1552 Jupiter Ave",NA,"Hilliard","OH","43026","Franklin",39.9828,-83.161,"Single Family","Standard",3,1.5,1500,NA,NA,"Inactive",2650,"2025-08-04T00:00:00.000Z","2025-08-06T00:00:00.000Z",2
"1","1784-Ridgebury-Dr,-Hilliard,-OH-43026","1784 Ridgebury Dr, Hilliard, OH 43026","1784 Ridgebury Dr",NA,"Hilliard","OH","43026","Franklin",39.9867,-83.1582,"Condo","Standard",2,1.5,1500,NA,1994,"Inactive",1800,"2025-06-23T00:00:00.000Z","2025-08-05T00:00:00.000Z",43
"1","3437-Fishinger-Mill-Dr,-Hilliard,-OH-43026","3437 Fishinger Mill Dr, Hilliard, OH 43026","3437 Fishinger Mill Dr",NA,"Hilliard","OH","43026","Franklin",40.0235,-83.1113,"Apartment","Standard",2,2,1152,NA,NA,"Inactive",1600,"2025-07-31T00:00:00.000Z","2025-08-01T00:00:00.000Z",1
"1","1630-Holland-Dr,-Unit-1630,-Hilliard,-OH-43026","1630 Holland Dr, Unit 1630, Hilliard, OH 43026","1630 Holland Dr","Unit 1630","Hilliard","OH","43026","Franklin",39.9834,-83.1574,"Condo","Standard",2,1.5,1024,NA,NA,"Inactive",1950,"2025-06-01T00:00:00.000Z","2025-08-01T00:00:00.000Z",61
"1","5127-Singleton-Dr,---37D,-Hilliard,-OH-43026","5127 Singleton Dr, # 37D, Hilliard, OH 43026","5127 Singleton Dr","# 37D","Hilliard","OH","43026","Franklin",40.0098,-83.1453,"Townhouse","Standard",3,1.5,1031,NA,NA,"Inactive",1950,"2025-07-29T00:00:00.000Z","2025-07-30T00:00:00.000Z",1
"1","2965-Brookwell-Dr,-Columbus,-OH-43026","2965 Brookwell Dr, Columbus, OH 43026","2965 Brookwell Dr",NA,"Columbus","OH","43026","Franklin",40.0033,-83.1678,"Single Family","Standard",3,2.5,1452,NA,NA,"Inactive",2445,"2025-07-28T00:00:00.000Z","2025-07-30T00:00:00.000Z",2
"1","3958-Thims-Ct,-Hilliard,-OH-43026","3958 Thims Ct, Hilliard, OH 43026","3958 Thims Ct",NA,"Hilliard","OH","43026","Franklin",40.0547,-83.1235,"Single Family","Standard",3,4,3144,NA,NA,"Inactive",1850,"2025-07-23T00:00:00.000Z","2025-07-24T00:00:00.000Z",1
"1","3474-Farley-Dr,-Hilliard,-OH-43026","3474 Farley Dr, Hilliard, OH 43026","3474 Farley Dr",NA,"Hilliard","OH","43026","Franklin",40.0228,-83.1568,"Single Family","Standard",3,1,1556,NA,1961,"Inactive",2195,"2025-06-09T00:00:00.000Z","2025-07-24T00:00:00.000Z",45
"1","5476-Mirage-Dr,-Columbus,-OH-43026","5476 Mirage Dr, Columbus, OH 43026","5476 Mirage Dr",NA,"Columbus","OH","43026","Franklin",40.002,-83.1587,"Single Family","Standard",3,2.5,2065,NA,NA,"Inactive",2550,"2025-07-19T00:00:00.000Z","2025-07-24T00:00:00.000Z",5
"1","1732-Ridgebury-Dr,-Hilliard,-OH-43026","1732 Ridgebury Dr, Hilliard, OH 43026","1732 Ridgebury Dr",NA,"Hilliard","OH","43026","Franklin",39.9853,-83.1584,"Condo","Standard",2,2,1000,NA,NA,"Inactive",1750,"2025-07-10T00:00:00.000Z","2025-07-22T00:00:00.000Z",12
"1","5787-Nike-Dr,-Hilliard,-OH-43026","5787 Nike Dr, Hilliard, OH 43026","5787 Nike Dr",NA,"Hilliard","OH","43026","Franklin",39.9981,-83.1593,"Single Family","Standard",3,2,1182,NA,NA,"Inactive",2150,"2025-07-17T00:00:00.000Z","2025-07-18T00:00:00.000Z",1
"1","5717-Pleasant-Hill-Dr,-Hilliard,-OH-43026","5717 Pleasant Hill Dr, Hilliard, OH 43026","5717 Pleasant Hill Dr",NA,"Hilliard","OH","43026","Franklin",40.0025,-83.1643,"Single Family","Standard",3,2.5,2438,NA,NA,"Inactive",2685,"2025-05-02T00:00:00.000Z","2025-07-17T00:00:00.000Z",76
"1","5216-Springdale-Blvd,-Columbus,-OH-43026","5216 Springdale Blvd, Columbus, OH 43026","5216 Springdale Blvd",NA,"Columbus","OH","43026","Franklin",40.0151,-83.1504,"Single Family","Standard",3,2.5,1542,NA,NA,"Inactive",2395,"2025-07-06T00:00:00.000Z","2025-07-16T00:00:00.000Z",10
"1","5216-Springdale-Blvd,-Hilliard,-OH-43026","5216 Springdale Blvd, Hilliard, OH 43026","5216 Springdale Blvd",NA,"Hilliard","OH","43026","Franklin",40.0151,-83.1504,"Single Family","Standard",3,2.5,1542,NA,NA,"Inactive",2395,"2025-07-14T00:00:00.000Z","2025-07-15T00:00:00.000Z",1
"1","5717-Pleasant-Hill-Dr,-Columbus,-OH-43026","5717 Pleasant Hill Dr, Columbus, OH 43026","5717 Pleasant Hill Dr",NA,"Columbus","OH","43026","Franklin",40.0025,-83.1643,"Single Family","Standard",3,2.5,2438,NA,NA,"Inactive",2685,"2025-05-03T00:00:00.000Z","2025-07-13T00:00:00.000Z",71
"1","4963-Singleton-Dr,-Hilliard,-OH-43026","4963 Singleton Dr, Hilliard, OH 43026","4963 Singleton Dr",NA,"Hilliard","OH","43026","Franklin",40.0097,-83.1424,"Townhouse","Standard",2,2,1200,NA,NA,"Inactive",1690,"2023-05-11T00:00:00.000Z","2025-07-11T00:00:00.000Z",792
"1","5123-Singleton-Dr,-Hilliard,-OH-43026","5123 Singleton Dr, Hilliard, OH 43026","5123 Singleton Dr",NA,"Hilliard","OH","43026","Franklin",40.0097,-83.1453,"Single Family","Standard",2,1.5,839,NA,NA,"Inactive",1600,"2025-07-08T00:00:00.000Z","2025-07-09T00:00:00.000Z",1
"1","6138-Longwood-Dr,-Hilliard,-OH-43026","6138 Longwood Dr, Hilliard, OH 43026","6138 Longwood Dr",NA,"Hilliard","OH","43026","Franklin",40.0059,-83.1754,"Single Family","Standard",4,2.5,2950,NA,NA,"Inactive",3499,"2025-06-23T00:00:00.000Z","2025-07-09T00:00:00.000Z",16
"1","1982-Schrive-Dr,-Hilliard,-OH-43026","1982 Schrive Dr, Hilliard, OH 43026","1982 Schrive Dr",NA,"Hilliard","OH","43026","Franklin",39.9916,-83.1633,"Single Family","Standard",3,2.5,1480,NA,NA,"Inactive",2295,"2025-05-16T00:00:00.000Z","2025-07-04T00:00:00.000Z",49
"1","4945-Singleton-Dr,-Unit-4945,-Hilliard,-OH-43026","4945 Singleton Dr, Unit 4945, Hilliard, OH 43026","4945 Singleton Dr","Unit 4945","Hilliard","OH","43026","Franklin",40.01,-83.1419,"Condo","Standard",2,1.5,1000,NA,NA,"Inactive",1800,"2025-06-19T00:00:00.000Z","2025-07-04T00:00:00.000Z",15
"1","1848-Messner-Dr,-Unit-59D,-Hilliard,-OH-43026","1848 Messner Dr, Unit 59D, Hilliard, OH 43026","1848 Messner Dr","Unit 59D","Hilliard","OH","43026","Franklin",39.9886,-83.1574,"Condo","Standard",2,1.5,1178,NA,NA,"Inactive",1840,"2024-08-28T00:00:00.000Z","2025-07-02T00:00:00.000Z",308
"1","1601-Holland-Dr,-Hilliard,-OH-43026","1601 Holland Dr, Hilliard, OH 43026","1601 Holland Dr",NA,"Hilliard","OH","43026","Franklin",39.9825,-83.1579,"Condo","Standard",2,2,1000,NA,NA,"Inactive",1899,"2025-06-20T00:00:00.000Z","2025-07-02T00:00:00.000Z",12
"1","5626-Valencia-Park-Blvd,-Hilliard,-OH-43026","5626 Valencia Park Blvd, Hilliard, OH 43026","5626 Valencia Park Blvd",NA,"Hilliard","OH","43026","Franklin",39.992,-83.1557,"Townhouse","Standard",2,2.5,1350,NA,NA,"Inactive",1795,"2025-05-28T00:00:00.000Z","2025-06-26T00:00:00.000Z",29
"1","5993-Brookmont-Dr,-Columbus,-OH-43026","5993 Brookmont Dr, Columbus, OH 43026","5993 Brookmont Dr",NA,"Columbus","OH","43026","Franklin",40.0028,-83.1691,"Single Family","Standard",3,2,1377,NA,NA,"Inactive",2170,"2025-05-03T00:00:00.000Z","2025-06-24T00:00:00.000Z",52
"1","4983-Abberton-Ct,-Hilliard,-OH-43026","4983 Abberton Ct, Hilliard, OH 43026","4983 Abberton Ct",NA,"Hilliard","OH","43026","Franklin",40.0532,-83.165,"Single Family","Standard",3,1.5,1796,NA,NA,"Inactive",2365,"2025-05-08T00:00:00.000Z","2025-06-24T00:00:00.000Z",47
"1","5993-Brookmont-Dr,-Hilliard,-OH-43026","5993 Brookmont Dr, Hilliard, OH 43026","5993 Brookmont Dr",NA,"Hilliard","OH","43026","Franklin",40.0028,-83.1691,"Single Family","Standard",3,2,1377,NA,NA,"Inactive",2170,"2025-05-03T00:00:00.000Z","2025-06-23T00:00:00.000Z",51
"1","5626-Valencia-Park-Blvd,-Unit-5626,-Hilliard,-OH-43026","5626 Valencia Park Blvd, Unit 5626, Hilliard, OH 43026","5626 Valencia Park Blvd","Unit 5626","Hilliard","OH","43026","Franklin",39.992,-83.1557,"Condo","Standard",2,2.5,1350,NA,NA,"Inactive",1795,"2025-05-28T00:00:00.000Z","2025-06-20T00:00:00.000Z",23
"1","4881-Arbormont-Rd,-Hilliard,-OH-43026","4881 Arbormont Rd, Hilliard, OH 43026","4881 Arbormont Rd",NA,"Hilliard","OH","43026","Franklin",40.042,-83.1491,"Single Family","Standard",3,2.5,1439,9148,1992,"Inactive",2445,"2025-06-08T00:00:00.000Z","2025-06-20T00:00:00.000Z",12
"1","1749-Messner-Dr,-Unit-1749,-Hilliard,-OH-43026","1749 Messner Dr, Unit 1749, Hilliard, OH 43026","1749 Messner Dr","Unit 1749","Hilliard","OH","43026","Franklin",39.9856,-83.158,"Condo","Standard",2,2,1150,NA,NA,"Inactive",1640,"2025-04-26T00:00:00.000Z","2025-06-19T00:00:00.000Z",54
"1","5984-Cape-Coral-Ln,-Hilliard,-OH-43026","5984 Cape Coral Ln, Hilliard, OH 43026","5984 Cape Coral Ln",NA,"Hilliard","OH","43026","Franklin",39.9889,-83.1644,"Single Family","Standard",3,2,1500,NA,1989,"Inactive",2099,"2025-05-30T00:00:00.000Z","2025-06-14T00:00:00.000Z",15
"1","3445-River-Narrows-Rd,-Hilliard,-OH-43026","3445 River Narrows Rd, Hilliard, OH 43026","3445 River Narrows Rd",NA,"Hilliard","OH","43026","Franklin",40.0492,-83.1104,"Single Family","Standard",4,2.5,2513,9148,1990,"Inactive",3200,"2025-05-22T00:00:00.000Z","2025-06-08T00:00:00.000Z",17
"1","4494-Earman-Dr,-Hilliard,-OH-43026","4494 Earman Dr, Hilliard, OH 43026","4494 Earman Dr",NA,"Hilliard","OH","43026","Franklin",40.0182,-83.1334,"Single Family","Standard",3,1.5,1598,8276,1993,"Inactive",3000,"2025-05-27T00:00:00.000Z","2025-06-07T00:00:00.000Z",11
"1","1793-Bennigan-Dr,-Hilliard,-OH-43026","1793 Bennigan Dr, Hilliard, OH 43026","1793 Bennigan Dr",NA,"Hilliard","OH","43026","Franklin",39.9873,-83.1558,"Condo","Standard",2,2,NA,NA,NA,"Inactive",1900,"2024-09-16T00:00:00.000Z","2025-06-05T00:00:00.000Z",262
"1","4951-Hidden-View-Ct,-Hilliard,-OH-43026","4951 Hidden View Ct, Hilliard, OH 43026","4951 Hidden View Ct",NA,"Hilliard","OH","43026","Franklin",40.0069,-83.1407,"Single Family","Standard",3,1,1220,6098,1989,"Inactive",2100,"2025-05-29T00:00:00.000Z","2025-06-02T00:00:00.000Z",4
"1","5011-Calhoon-Dr,-Hilliard,-OH-43026","5011 Calhoon Dr, Hilliard, OH 43026","5011 Calhoon Dr",NA,"Hilliard","OH","43026","Franklin",40.0083,-83.1427,"Single Family","Standard",3,3,1965,NA,NA,"Inactive",2535,"2025-04-20T00:00:00.000Z","2025-05-31T00:00:00.000Z",41
"1","5052-Stoneybrook-Blvd,-Unit-4D,-Hilliard,-OH-43026","5052 Stoneybrook Blvd, Unit 4D, Hilliard, OH 43026","5052 Stoneybrook Blvd","Unit 4D","Hilliard","OH","43026","Franklin",40.0171,-83.1465,"Condo","Standard",2,1.5,832,436,1989,"Inactive",1750,"2025-05-15T00:00:00.000Z","2025-05-29T00:00:00.000Z",14
"1","1914-Dry-Wash-Rd,-Hilliard,-OH-43026","1914 Dry Wash Rd, Hilliard, OH 43026","1914 Dry Wash Rd",NA,"Hilliard","OH","43026","Franklin",39.9904,-83.1615,"Single Family","Standard",3,2.5,1736,NA,NA,"Inactive",2570,"2025-05-25T00:00:00.000Z","2025-05-26T00:00:00.000Z",1
"1","5692-Ashcroft-Ln,-Columbus,-OH-43026","5692 Ashcroft Ln, Columbus, OH 43026","5692 Ashcroft Ln",NA,"Columbus","OH","43026","Franklin",39.9854,-83.1561,"Townhouse","Standard",2,2,1180,NA,NA,"Inactive",1700,"2024-12-29T00:00:00.000Z","2025-05-20T00:00:00.000Z",142
"1","5692-Ashcroft-Lane-Ashcroft-Ln,-Unit-5692,-Hilliard,-OH-43026","5692 Ashcroft Lane Ashcroft Ln, Unit 5692, Hilliard, OH 43026","5692 Ashcroft Lane Ashcroft Ln","Unit 5692","Hilliard","OH","43026","Franklin",39.9854,-83.1561,"Townhouse","Standard",2,2,1180,NA,NA,"Inactive",1700,"2024-11-07T00:00:00.000Z","2025-05-19T00:00:00.000Z",193
"1","1745-Sledge-Dibbers-Dr,---6342,-Hilliard,-OH-43026","1745 Sledge Dibbers Dr, # 6342, Hilliard, OH 43026","1745 Sledge Dibbers Dr","# 6342","Hilliard","OH","43026","Franklin",39.9863,-83.1767,"Condo","Standard",2,2,1244,NA,NA,"Inactive",1841,"2025-05-15T00:00:00.000Z","2025-05-16T00:00:00.000Z",1
"1","2507-Pressmen-Dr,-Hilliard,-OH-43026","2507 Pressmen Dr, Hilliard, OH 43026","2507 Pressmen Dr",NA,"Hilliard","OH","43026","Franklin",40.0026,-83.1598,"Single Family","Standard",4,2,2182,NA,1999,"Inactive",2854,"2025-03-05T00:00:00.000Z","2025-05-10T00:00:00.000Z",66
"1","5222-Tarlmeadows-Ln,-Hilliard,-OH-43026","5222 Tarlmeadows Ln, Hilliard, OH 43026","5222 Tarlmeadows Ln",NA,"Hilliard","OH","43026","Franklin",40.0565,-83.1863,"Single Family","Standard",5,4,3696,12632,2018,"Inactive",4695,"2025-04-15T00:00:00.000Z","2025-05-09T00:00:00.000Z",24
"1","4817-Prince-Charles-Way,-Hilliard,-OH-43026","4817 Prince Charles Way, Hilliard, OH 43026","4817 Prince Charles Way",NA,"Hilliard","OH","43026","Franklin",40.0499,-83.1611,"Townhouse","Standard",3,2.5,1344,NA,NA,"Inactive",1950,"2025-05-06T00:00:00.000Z","2025-05-07T00:00:00.000Z",1
"1","5195-Aurora-Dr,-Hilliard,-OH-43026","5195 Aurora Dr, Hilliard, OH 43026","5195 Aurora Dr",NA,"Hilliard","OH","43026","Franklin",40.0167,-83.1502,"Single Family","Standard",4,2.5,1978,NA,NA,"Inactive",2400,"2025-05-02T00:00:00.000Z","2025-05-04T00:00:00.000Z",2
"1","5111-Singleton-Dr,-Hilliard,-OH-43026","5111 Singleton Dr, Hilliard, OH 43026","5111 Singleton Dr",NA,"Hilliard","OH","43026","Franklin",40.0094,-83.1453,"Condo","Standard",2,1.5,839,NA,NA,"Inactive",1695,"2025-05-02T00:00:00.000Z","2025-05-03T00:00:00.000Z",1
"1","2051-Melone-Dr,-Hilliard,-OH-43026","2051 Melone Dr, Hilliard, OH 43026","2051 Melone Dr",NA,"Hilliard","OH","43026","Franklin",39.9925,-83.1747,"Single Family","New Construction",4,2.5,3337,8276,2025,"Inactive",3900,"2025-04-21T00:00:00.000Z","2025-05-01T00:00:00.000Z",10
"1","4754-Leybourne-Dr,-Hilliard,-OH-43026","4754 Leybourne Dr, Hilliard, OH 43026","4754 Leybourne Dr",NA,"Hilliard","OH","43026","Franklin",40.0485,-83.1651,"Single Family","Standard",4,2.5,2080,7405,1986,"Inactive",2450,"2025-04-19T00:00:00.000Z","2025-04-29T00:00:00.000Z",10
"1","3798-Rutledge-Dr,-Hilliard,-OH-43026","3798 Rutledge Dr, Hilliard, OH 43026","3798 Rutledge Dr",NA,"Hilliard","OH","43026","Franklin",40.029,-83.1662,"Single Family","Standard",3,1.5,1025,7405,1959,"Inactive",1800,"2025-03-19T00:00:00.000Z","2025-04-27T00:00:00.000Z",39
"1","1531-Whispering-Willow-Ln,-Columbus,-OH-43026","1531 Whispering Willow Ln, Columbus, OH 43026","1531 Whispering Willow Ln",NA,"Columbus","OH","43026","Franklin",39.9829,-83.159,"Apartment","Standard",3,2.5,1250,NA,NA,"Inactive",1025,"2025-01-15T00:00:00.000Z","2025-04-22T00:00:00.000Z",97
"1","3564-Wenwood-Dr,-Hilliard,-OH-43026","3564 Wenwood Dr, Hilliard, OH 43026","3564 Wenwood Dr",NA,"Hilliard","OH","43026","Franklin",40.0466,-83.1128,"Single Family","Standard",3,1.5,1830,10890,1962,"Inactive",2700,"2025-03-02T00:00:00.000Z","2025-04-14T00:00:00.000Z",43
"1","4532-Paxton-Dr-S,-Hilliard,-OH-43026","4532 Paxton Dr S, Hilliard, OH 43026","4532 Paxton Dr S",NA,"Hilliard","OH","43026","Franklin",40.0218,-83.1354,"Single Family","Standard",4,1.5,1308,NA,1971,"Inactive",2195,"2025-04-11T00:00:00.000Z","2025-04-12T00:00:00.000Z",1
"1","2570-Hilliard-Run-Dr,-Hilliard,-OH-43026","2570 Hilliard Run Dr, Hilliard, OH 43026","2570 Hilliard Run Dr",NA,"Hilliard","OH","43026","Franklin",40.0437,-83.1649,"Single Family","Standard",4,2,2182,NA,NA,"Inactive",1700,"2025-04-09T00:00:00.000Z","2025-04-12T00:00:00.000Z",3
"1","1790-Sledge-Dr,-Hilliard,-OH-43026","1790 Sledge Dr, Hilliard, OH 43026","1790 Sledge Dr",NA,"Hilliard","OH","43026","Franklin",39.9864,-83.176,"Condo","Standard",2,2,1081,NA,NA,"Inactive",1695,"2025-04-10T00:00:00.000Z","2025-04-11T00:00:00.000Z",1
"1","5203-Drivemere-Rd,-Hilliard,-OH-43026","5203 Drivemere Rd, Hilliard, OH 43026","5203 Drivemere Rd",NA,"Hilliard","OH","43026","Franklin",40.0293,-83.1553,"Single Family","Standard",3,1,990,NA,NA,"Inactive",1775,"2025-04-10T00:00:00.000Z","2025-04-11T00:00:00.000Z",1
"1","1648-Blackhorse-Ln,-Unit-171D,-Hilliard,-OH-43026","1648 Blackhorse Ln, Unit 171D, Hilliard, OH 43026","1648 Blackhorse Ln","Unit 171D","Hilliard","OH","43026","Franklin",39.9841,-83.1571,"Townhouse","Standard",2,1.5,NA,NA,NA,"Inactive",1700,"2023-11-21T00:00:00.000Z","2025-04-11T00:00:00.000Z",507
"1","1973-Jasper-Ln,-Hilliard,-OH-43026","1973 Jasper Ln, Hilliard, OH 43026","1973 Jasper Ln",NA,"Hilliard","OH","43026","Franklin",39.9913,-83.1568,"Townhouse","Standard",2,2.5,1024,NA,NA,"Inactive",1850,"2025-03-07T00:00:00.000Z","2025-04-06T00:00:00.000Z",30
"1","5672-Mango-Ln,-Hilliard,-OH-43026","5672 Mango Ln, Hilliard, OH 43026","5672 Mango Ln",NA,"Hilliard","OH","43026","Franklin",39.9903,-83.1564,"Condo","Standard",2,2.5,1024,NA,NA,"Inactive",1850,"2025-04-01T00:00:00.000Z","2025-04-02T00:00:00.000Z",1
"1","5717-Rutgers-Ln,-Unit-181B,-Hilliard,-OH-43026","5717 Rutgers Ln, Unit 181B, Hilliard, OH 43026","5717 Rutgers Ln","Unit 181B","Hilliard","OH","43026","Franklin",39.9824,-83.1573,"Condo","Standard",2,1.5,1200,436,1996,"Inactive",1600,"2025-03-08T00:00:00.000Z","2025-04-02T00:00:00.000Z",25
"1","2938-Carlsbad-Dr,-Hilliard,-OH-43026","2938 Carlsbad Dr, Hilliard, OH 43026","2938 Carlsbad Dr",NA,"Hilliard","OH","43026","Franklin",40.0121,-83.1407,"Single Family","Standard",3,2,1310,NA,NA,"Inactive",2100,"2025-03-12T00:00:00.000Z","2025-04-02T00:00:00.000Z",21
"1","4403-Paxton-Dr-S,-Hilliard,-OH-43026","4403 Paxton Dr S, Hilliard, OH 43026","4403 Paxton Dr S",NA,"Hilliard","OH","43026","Franklin",40.0217,-83.1319,"Single Family","Standard",4,1.5,1404,NA,NA,"Inactive",2300,"2025-03-31T00:00:00.000Z","2025-04-01T00:00:00.000Z",1
"1","5717-Rutgers-Ln,-Unit-5717,-Hilliard,-OH-43026","5717 Rutgers Ln, Unit 5717, Hilliard, OH 43026","5717 Rutgers Ln","Unit 5717","Hilliard","OH","43026","Franklin",39.9824,-83.1573,"Condo","Standard",2,2,1200,NA,NA,"Inactive",1600,"2025-02-28T00:00:00.000Z","2025-03-31T00:00:00.000Z",31
"1","5230-Bigelow-Dr,-Hilliard,-OH-43026","5230 Bigelow Dr, Hilliard, OH 43026","5230 Bigelow Dr",NA,"Hilliard","OH","43026","Franklin",40.024,-83.1549,"Single Family","Standard",2,2,1348,NA,1958,"Inactive",2200,"2025-02-28T00:00:00.000Z","2025-03-31T00:00:00.000Z",31
"1","5217-Norwich-St,-Hilliard,-OH-43026","5217 Norwich St, Hilliard, OH 43026","5217 Norwich St",NA,"Hilliard","OH","43026","Franklin",40.0329,-83.1567,"Single Family","Standard",2,1,1408,6970,1910,"Inactive",1750,"2025-03-24T00:00:00.000Z","2025-03-29T00:00:00.000Z",5
"1","5807-Lonerise-Ln,-Columbus,-OH-43026","5807 Lonerise Ln, Columbus, OH 43026","5807 Lonerise Ln",NA,"Columbus","OH","43026","Franklin",39.9918,-83.1627,"Single Family","Standard",3,2.5,1622,NA,NA,"Inactive",2390,"2025-03-15T00:00:00.000Z","2025-03-28T00:00:00.000Z",13
"1","2797-Wynnetree-Ct,-Hilliard,-OH-43026","2797 Wynnetree Ct, Hilliard, OH 43026","2797 Wynnetree Ct",NA,"Hilliard","OH","43026","Franklin",40.0084,-83.1582,"Single Family","Standard",4,2.5,1978,12197,1992,"Inactive",2900,"2025-03-12T00:00:00.000Z","2025-03-26T00:00:00.000Z",14
"1","5807-Lonerise-Ln,-Hilliard,-OH-43026","5807 Lonerise Ln, Hilliard, OH 43026","5807 Lonerise Ln",NA,"Hilliard","OH","43026","Franklin",39.9918,-83.1627,"Single Family","Standard",3,2.5,1622,NA,NA,"Inactive",2390,"2025-03-17T00:00:00.000Z","2025-03-24T00:00:00.000Z",7
"1","3655-Stonecross-Ln,-Hilliard,-OH-43026","3655 Stonecross Ln, Hilliard, OH 43026","3655 Stonecross Ln",NA,"Hilliard","OH","43026","Franklin",40.0269,-83.1446,"Single Family","Standard",3,3,1655,8712,1997,"Inactive",2400,"2022-07-23T00:00:00.000Z","2025-03-21T00:00:00.000Z",972
"1","3083-Fawn-Crossing-Dr,-Hilliard,-OH-43026","3083 Fawn Crossing Dr, Hilliard, OH 43026","3083 Fawn Crossing Dr",NA,"Hilliard","OH","43026","Franklin",40.0143,-83.1744,"Single Family","Standard",3,3,2360,NA,NA,"Inactive",1690,"2025-03-18T00:00:00.000Z","2025-03-19T00:00:00.000Z",1
"1","5070-Gilwood-Dr,-Hilliard,-OH-43026","5070 Gilwood Dr, Hilliard, OH 43026","5070 Gilwood Dr",NA,"Hilliard","OH","43026","Franklin",39.999,-83.1422,"Single Family","Standard",3,3,1382,NA,NA,"Inactive",1450,"2025-03-18T00:00:00.000Z","2025-03-19T00:00:00.000Z",1
"1","4953-Singleton-Dr,-Unit-16B,-Hilliard,-OH-43026","4953 Singleton Dr, Unit 16B, Hilliard, OH 43026","4953 Singleton Dr","Unit 16B","Hilliard","OH","43026","Franklin",40.0097,-83.1419,"Condo","Standard",2,2,1049,436,1990,"Inactive",1895,"2025-02-12T00:00:00.000Z","2025-03-18T00:00:00.000Z",34
"1","5049-Stoneybrook-Blvd,-Hilliard,-OH-43026","5049 Stoneybrook Blvd, Hilliard, OH 43026","5049 Stoneybrook Blvd",NA,"Hilliard","OH","43026","Franklin",40.0165,-83.1464,"Single Family","Standard",2,1.5,1040,NA,NA,"Inactive",1895,"2025-01-27T00:00:00.000Z","2025-03-17T00:00:00.000Z",49
"1","4953-Singleton-Dr,-Hilliard,-OH-43026","4953 Singleton Dr, Hilliard, OH 43026","4953 Singleton Dr",NA,"Hilliard","OH","43026","Franklin",40.0102,-83.1421,"Single Family","Standard",2,2,1049,NA,NA,"Inactive",1895,"2025-03-07T00:00:00.000Z","2025-03-17T00:00:00.000Z",10
"1","3652-Hilliard-Station-Rd,-Hilliard,-OH-43026","3652 Hilliard Station Rd, Hilliard, OH 43026","3652 Hilliard Station Rd",NA,"Hilliard","OH","43026","Franklin",40.0225,-83.1105,"Condo","Standard",3,2.5,1268,871,1988,"Inactive",2000,"2025-02-26T00:00:00.000Z","2025-03-16T00:00:00.000Z",18
"1","1745-Sledge-Dibbers-Dr,---6360,-Hilliard,-OH-43026","1745 Sledge Dibbers Dr, # 6360, Hilliard, OH 43026","1745 Sledge Dibbers Dr","# 6360","Hilliard","OH","43026","Franklin",39.9863,-83.1767,"Condo","Standard",1,1,725,NA,NA,"Inactive",1370,"2025-03-14T00:00:00.000Z","2025-03-15T00:00:00.000Z",1
"1","1745-Sledge-Plough-Dr,---1818,-Hilliard,-OH-43026","1745 Sledge Plough Dr, # 1818, Hilliard, OH 43026","1745 Sledge Plough Dr","# 1818","Hilliard","OH","43026","Franklin",39.9863,-83.1767,"Condo","Standard",2,3,1416,NA,NA,"Inactive",1875,"2025-03-13T00:00:00.000Z","2025-03-14T00:00:00.000Z",1
"1","1648-Blackhorse-Ln,-Unit-A,-Hilliard,-OH-43026","1648 Blackhorse Ln, Unit A, Hilliard, OH 43026","1648 Blackhorse Ln","Unit A","Hilliard","OH","43026","Franklin",39.9841,-83.1571,"Condo","Standard",2,1.5,895,NA,NA,"Inactive",1700,"2025-02-10T00:00:00.000Z","2025-03-13T00:00:00.000Z",31
"1","2934-Badger-Dr,-Hilliard,-OH-43026","2934 Badger Dr, Hilliard, OH 43026","2934 Badger Dr",NA,"Hilliard","OH","43026","Franklin",40.0118,-83.1438,"Single Family","Standard",3,1.5,1211,NA,NA,"Inactive",2000,"2025-03-11T00:00:00.000Z","2025-03-12T00:00:00.000Z",1
"1","5754-Wooden-Plank-Rd,-Hilliard,-OH-43026","5754 Wooden Plank Rd, Hilliard, OH 43026","5754 Wooden Plank Rd",NA,"Hilliard","OH","43026","Franklin",39.9897,-83.1626,"Single Family","Standard",3,2.5,1732,NA,NA,"Inactive",2505,"2024-11-02T00:00:00.000Z","2025-03-12T00:00:00.000Z",130
"1","5812-Nike-Dr,-Hilliard,-OH-43026","5812 Nike Dr, Hilliard, OH 43026","5812 Nike Dr",NA,"Hilliard","OH","43026","Franklin",39.9988,-83.1598,"Single Family","Standard",4,2.5,2036,NA,NA,"Inactive",2715,"2025-01-05T00:00:00.000Z","2025-03-12T00:00:00.000Z",66
"1","1745-Sledge-Dibbers-Dr,---6354,-Hilliard,-OH-43026","1745 Sledge Dibbers Dr, # 6354, Hilliard, OH 43026","1745 Sledge Dibbers Dr","# 6354","Hilliard","OH","43026","Franklin",39.9863,-83.1767,"Condo","Standard",1,1,725,NA,NA,"Inactive",1370,"2025-03-09T00:00:00.000Z","2025-03-10T00:00:00.000Z",1
"1","3464-Fishinger-Mill-Dr,-Hilliard,-OH-43026","3464 Fishinger Mill Dr, Hilliard, OH 43026","3464 Fishinger Mill Dr",NA,"Hilliard","OH","43026","Franklin",40.0243,-83.1104,"Condo","Standard",2,2,1152,436,1988,"Inactive",1700,"2025-02-26T00:00:00.000Z","2025-03-10T00:00:00.000Z",12
"1","1745-Sledge-Dibbers-Dr,---6330,-Hilliard,-OH-43026","1745 Sledge Dibbers Dr, # 6330, Hilliard, OH 43026","1745 Sledge Dibbers Dr","# 6330","Hilliard","OH","43026","Franklin",39.9863,-83.1767,"Condo","Standard",2,3,1416,NA,NA,"Inactive",1875,"2025-03-07T00:00:00.000Z","2025-03-08T00:00:00.000Z",1
"1","5178-Meadowsview-Ln,-Hilliard,-OH-43026","5178 Meadowsview Ln, Hilliard, OH 43026","5178 Meadowsview Ln",NA,"Hilliard","OH","43026","Franklin",40.056,-83.1885,"Single Family","Standard",4,2.5,2972,11326,2020,"Inactive",3400,"2025-02-13T00:00:00.000Z","2025-03-08T00:00:00.000Z",23
"1","5049-Stoneybrook-Blvd,-Unit-6B,-Hilliard,-OH-43026","5049 Stoneybrook Blvd, Unit 6B, Hilliard, OH 43026","5049 Stoneybrook Blvd","Unit 6B","Hilliard","OH","43026","Franklin",40.0166,-83.1464,"Condo","Standard",2,1.5,1040,436,1989,"Inactive",1895,"2025-01-22T00:00:00.000Z","2025-03-06T00:00:00.000Z",43
"1","5335-Dexter-Ave,-Hilliard,-OH-43026","5335 Dexter Ave, Hilliard, OH 43026","5335 Dexter Ave",NA,"Hilliard","OH","43026","Franklin",40.0377,-83.1606,"Single Family","Standard",3,1,960,NA,NA,"Inactive",1855,"2025-01-01T00:00:00.000Z","2025-03-02T00:00:00.000Z",60
"1","5787-Trailwater-Ln,-Hilliard,-OH-43026","5787 Trailwater Ln, Hilliard, OH 43026","5787 Trailwater Ln",NA,"Hilliard","OH","43026","Franklin",39.9947,-83.1626,"Single Family","Standard",3,2.5,1749,NA,2001,"Inactive",2090,"2025-02-23T00:00:00.000Z","2025-02-27T00:00:00.000Z",4
"1","5651-Scotty-Ct,-Hilliard,-OH-43026","5651 Scotty Ct, Hilliard, OH 43026","5651 Scotty Ct",NA,"Hilliard","OH","43026","Franklin",39.9937,-83.1576,"Single Family","Standard",3,1.5,1228,13939,1979,"Inactive",2250,"2024-07-30T00:00:00.000Z","2025-02-25T00:00:00.000Z",210
"1","1981-Camino-Ln,-Unit-16B,-Hilliard,-OH-43026","1981 Camino Ln, Unit 16B, Hilliard, OH 43026","1981 Camino Ln","Unit 16B","Hilliard","OH","43026","Franklin",39.9915,-83.1561,"Condo","Standard",2,3,1500,NA,NA,"Inactive",1800,"2025-02-14T00:00:00.000Z","2025-02-25T00:00:00.000Z",11
"1","1745-Sledge-Dibbers-Dr,---6424,-Hilliard,-OH-43026","1745 Sledge Dibbers Dr, # 6424, Hilliard, OH 43026","1745 Sledge Dibbers Dr","# 6424","Hilliard","OH","43026","Franklin",39.9863,-83.1767,"Condo","Standard",2,3,1416,NA,NA,"Inactive",1875,"2025-02-23T00:00:00.000Z","2025-02-24T00:00:00.000Z",1
"1","5800-Brinkwater-Blvd,-Hilliard,-OH-43026","5800 Brinkwater Blvd, Hilliard, OH 43026","5800 Brinkwater Blvd",NA,"Hilliard","OH","43026","Franklin",39.9931,-83.1625,"Single Family","Standard",3,2.5,1545,NA,NA,"Inactive",2195,"2025-01-18T00:00:00.000Z","2025-02-23T00:00:00.000Z",36
"1","3408-Eastwoodlands-Trl,-Hilliard,-OH-43026","3408 Eastwoodlands Trl, Hilliard, OH 43026","3408 Eastwoodlands Trl",NA,"Hilliard","OH","43026","Franklin",40.0237,-83.1116,"Condo","Standard",2,2.5,1500,871,1988,"Inactive",1650,"2025-02-03T00:00:00.000Z","2025-02-13T00:00:00.000Z",10
"1","2800-Toms-Trace-Ct,-Hilliard,-OH-43026","2800 Toms Trace Ct, Hilliard, OH 43026","2800 Toms Trace Ct",NA,"Hilliard","OH","43026","Franklin",40.0093,-83.1427,"Single Family","Standard",3,2,1317,NA,NA,"Inactive",1100,"2025-02-07T00:00:00.000Z","2025-02-12T00:00:00.000Z",5
"1","4420-Jennydawn-Pl,-Hilliard,-OH-43026","4420 Jennydawn Pl, Hilliard, OH 43026","4420 Jennydawn Pl",NA,"Hilliard","OH","43026","Franklin",40.0214,-83.1324,"Single Family","Standard",3,2,1268,NA,NA,"Inactive",1300,"2025-02-09T00:00:00.000Z","2025-02-12T00:00:00.000Z",3
"1","5556-Village-Psge,-Hilliard,-OH-43026","5556 Village Psge, Hilliard, OH 43026","5556 Village Psge",NA,"Hilliard","OH","43026","Franklin",40.0058,-83.1571,"Condo","Standard",3,2.5,1678,NA,1997,"Inactive",2099,"2025-01-02T00:00:00.000Z","2025-02-11T00:00:00.000Z",40
"1","5075-Crockett-Dr,-Hilliard,-OH-43026","5075 Crockett Dr, Hilliard, OH 43026","5075 Crockett Dr",NA,"Hilliard","OH","43026","Franklin",40.0129,-83.146,"Single Family","Standard",3,2.5,1542,9148,1990,"Inactive",2300,"2025-01-06T00:00:00.000Z","2025-02-10T00:00:00.000Z",35
"1","1745-Sledge-Plough-Dr,---1790,-Hilliard,-OH-43026","1745 Sledge Plough Dr, # 1790, Hilliard, OH 43026","1745 Sledge Plough Dr","# 1790","Hilliard","OH","43026","Franklin",39.9863,-83.1767,"Condo","Standard",1,1,794,NA,NA,"Inactive",1367,"2025-02-08T00:00:00.000Z","2025-02-09T00:00:00.000Z",1
"1","3311-Darby-Glen-Blvd,-Hilliard,-OH-43026","3311 Darby Glen Blvd, Hilliard, OH 43026","3311 Darby Glen Blvd",NA,"Hilliard","OH","43026","Franklin",40.0206,-83.1317,"Single Family","Standard",3,2,1339,NA,NA,"Inactive",2390,"2025-01-14T00:00:00.000Z","2025-02-08T00:00:00.000Z",25
"1","5911-Vero-Dr,-Columbus,-OH-43026","5911 Vero Dr, Columbus, OH 43026","5911 Vero Dr",NA,"Columbus","OH","43026","Franklin",39.9843,-83.1614,"Single Family","Standard",3,2.5,1985,NA,NA,"Inactive",2520,"2025-01-07T00:00:00.000Z","2025-02-07T00:00:00.000Z",31
"1","5911-Vero-Dr,-Hilliard,-OH-43026","5911 Vero Dr, Hilliard, OH 43026","5911 Vero Dr",NA,"Hilliard","OH","43026","Franklin",39.9843,-83.1614,"Single Family","Standard",3,2.5,1985,NA,NA,"Inactive",2535,"2025-02-05T00:00:00.000Z","2025-02-06T00:00:00.000Z",1
"1","1745-Sledge-Plough-Dr,---1772,-Hilliard,-OH-43026","1745 Sledge Plough Dr, # 1772, Hilliard, OH 43026","1745 Sledge Plough Dr","# 1772","Hilliard","OH","43026","Franklin",39.9863,-83.1767,"Condo","Standard",2,2,1081,NA,NA,"Inactive",1695,"2025-02-02T00:00:00.000Z","2025-02-03T00:00:00.000Z",1
"1","2657-Village-Pier-Ln,-Hilliard,-OH-43026","2657 Village Pier Ln, Hilliard, OH 43026","2657 Village Pier Ln",NA,"Hilliard","OH","43026","Franklin",40.0058,-83.156,"Single Family","Standard",2,2.5,1508,NA,NA,"Inactive",2100,"2025-01-26T00:00:00.000Z","2025-02-01T00:00:00.000Z",6
"1","1745-Sledge-Dr,---1766,-Hilliard,-OH-43026","1745 Sledge Dr, # 1766, Hilliard, OH 43026","1745 Sledge Dr","# 1766","Hilliard","OH","43026","Franklin",39.9863,-83.1767,"Condo","Standard",2,2,1081,NA,NA,"Inactive",1695,"2025-01-29T00:00:00.000Z","2025-01-30T00:00:00.000Z",1
"1","2313-Brisum-Way,-Hilliard,-OH-43026","2313 Brisum Way, Hilliard, OH 43026","2313 Brisum Way",NA,"Hilliard","OH","43026","Franklin",39.9975,-83.1451,"Single Family","Standard",3,2.5,1408,NA,NA,"Inactive",2140,"2024-09-09T00:00:00.000Z","2025-01-26T00:00:00.000Z",139
"1","5177-Singleton-Dr,-Hilliard,-OH-43026","5177 Singleton Dr, Hilliard, OH 43026","5177 Singleton Dr",NA,"Hilliard","OH","43026","Franklin",40.0093,-83.1464,"Townhouse","Standard",2,1.5,1039,NA,NA,"Inactive",1945,"2024-11-23T00:00:00.000Z","2025-01-26T00:00:00.000Z",64
"1","1745-Sledge-Ox-Dr,---6401,-Hilliard,-OH-43026","1745 Sledge Ox Dr, # 6401, Hilliard, OH 43026","1745 Sledge Ox Dr","# 6401","Hilliard","OH","43026","Franklin",39.9863,-83.1767,"Condo","Standard",1,1,794,NA,NA,"Inactive",1345,"2025-01-23T00:00:00.000Z","2025-01-24T00:00:00.000Z",1
"1","5161-Singleton-Dr,-Hilliard,-OH-43026","5161 Singleton Dr, Hilliard, OH 43026","5161 Singleton Dr",NA,"Hilliard","OH","43026","Franklin",40.0097,-83.1465,"Single Family","Standard",2,2,NA,NA,NA,"Inactive",1995,"2025-01-13T00:00:00.000Z","2025-01-24T00:00:00.000Z",11
"1","5177-Singleton-Dr,-Unit-45D,-Hilliard,-OH-43026","5177 Singleton Dr, Unit 45D, Hilliard, OH 43026","5177 Singleton Dr","Unit 45D","Hilliard","OH","43026","Franklin",40.0093,-83.1464,"Single Family","Standard",2,1.5,1039,871,1991,"Inactive",1945,"2025-01-05T00:00:00.000Z","2025-01-24T00:00:00.000Z",19
"1","5161-Singleton-Dr,-Unit-46A,-Hilliard,-OH-43026","5161 Singleton Dr, Unit 46A, Hilliard, OH 43026","5161 Singleton Dr","Unit 46A","Hilliard","OH","43026","Franklin",40.0097,-83.1464,"Condo","Standard",2,2,1024,871,1991,"Inactive",1995,"2025-01-07T00:00:00.000Z","2025-01-22T00:00:00.000Z",15
"1","1750-Jupiter-Ave,-Hilliard,-OH-43026","1750 Jupiter Ave, Hilliard, OH 43026","1750 Jupiter Ave",NA,"Hilliard","OH","43026","Franklin",39.9871,-83.1606,"Single Family","Standard",3,1.5,1320,NA,NA,"Inactive",2125,"2025-01-20T00:00:00.000Z","2025-01-21T00:00:00.000Z",1
"1","5173-Singleton-Dr,-Unit-5173,-Hilliard,-OH-43026","5173 Singleton Dr, Unit 5173, Hilliard, OH 43026","5173 Singleton Dr","Unit 5173","Hilliard","OH","43026","Franklin",40.0094,-83.1464,"Condo","Standard",2,2,1100,NA,NA,"Inactive",1650,"2024-11-22T00:00:00.000Z","2025-01-16T00:00:00.000Z",55
"1","1745-Sledge-Plough-Dr,---1795,-Hilliard,-OH-43026","1745 Sledge Plough Dr, # 1795, Hilliard, OH 43026","1745 Sledge Plough Dr","# 1795","Hilliard","OH","43026","Franklin",39.9863,-83.1767,"Condo","Standard",1,1,841,NA,NA,"Inactive",1512,"2025-01-14T00:00:00.000Z","2025-01-15T00:00:00.000Z",1
"1","3418-Kroehler-Dr,-Hilliard,-OH-43026","3418 Kroehler Dr, Hilliard, OH 43026","3418 Kroehler Dr",NA,"Hilliard","OH","43026","Franklin",40.0216,-83.1556,"Single Family","Standard",4,2,1828,NA,NA,"Inactive",2275,"2024-12-23T00:00:00.000Z","2025-01-13T00:00:00.000Z",21
"1","5090-Silver-Bow-Dr,-Hilliard,-OH-43026","5090 Silver Bow Dr, Hilliard, OH 43026","5090 Silver Bow Dr",NA,"Hilliard","OH","43026","Franklin",40.0156,-83.1472,"Single Family","Standard",3,2,1537,7405,1990,"Inactive",2495,"2024-10-25T00:00:00.000Z","2025-01-09T00:00:00.000Z",76
"1","3422-River-Narrows-Rd,-Hilliard,-OH-43026","3422 River Narrows Rd, Hilliard, OH 43026","3422 River Narrows Rd",NA,"Hilliard","OH","43026","Franklin",40.0494,-83.1095,"Single Family","Standard",5,3.5,2608,8712,1991,"Inactive",3950,"2024-12-12T00:00:00.000Z","2025-01-08T00:00:00.000Z",27
"1","1745-Sledge-Dr,---1726,-Hilliard,-OH-43026","1745 Sledge Dr, # 1726, Hilliard, OH 43026","1745 Sledge Dr","# 1726","Hilliard","OH","43026","Franklin",39.9863,-83.1767,"Condo","Standard",1,1,794,NA,NA,"Inactive",1358,"2025-01-06T00:00:00.000Z","2025-01-07T00:00:00.000Z",1
"1","4995-Stoneybrook-Blvd,-Hilliard,-OH-43026","4995 Stoneybrook Blvd, Hilliard, OH 43026","4995 Stoneybrook Blvd",NA,"Hilliard","OH","43026","Franklin",40.0167,-83.145,"Condo","Standard",2,1,NA,NA,NA,"Inactive",1650,"2024-12-05T00:00:00.000Z","2025-01-07T00:00:00.000Z",33
"1","5260-Franklin-St,-Unit-5263-404,-Hilliard,-OH-43026","5260 Franklin St, Unit 5263-404, Hilliard, OH 43026","5260 Franklin St","Unit 5263-404","Hilliard","OH","43026","Franklin",40.0311,-83.1566,"Apartment","Standard",2,2,912,NA,NA,"Inactive",2286,"2024-06-12T00:00:00.000Z","2025-01-03T00:00:00.000Z",205
"1","6293-Lattuga-Dr,-Hilliard,-OH-43026","6293 Lattuga Dr, Hilliard, OH 43026","6293 Lattuga Dr",NA,"Hilliard","OH","43026","Franklin",39.99,-83.1769,"Single Family","Standard",4,2.5,2456,NA,NA,"Inactive",3200,"2024-11-28T00:00:00.000Z","2024-12-29T00:00:00.000Z",31
"1","4529-Circle-Dr,-Hilliard,-OH-43026","4529 Circle Dr, Hilliard, OH 43026","4529 Circle Dr",NA,"Hilliard","OH","43026","Franklin",40.0421,-83.1621,"Single Family","Standard",4,2,NA,NA,NA,"Inactive",1990,"2024-12-02T00:00:00.000Z","2024-12-19T00:00:00.000Z",17
"1","4862-Roger-Allen-Ct,-Hilliard,-OH-43026","4862 Roger Allen Ct, Hilliard, OH 43026","4862 Roger Allen Ct",NA,"Hilliard","OH","43026","Franklin",40.0527,-83.1219,"Single Family","Standard",4,2.5,2348,NA,NA,"Inactive",2700,"2024-12-16T00:00:00.000Z","2024-12-17T00:00:00.000Z",1
"1","1616-Holland-Dr,-Hilliard,-OH-43026","1616 Holland Dr, Hilliard, OH 43026","1616 Holland Dr",NA,"Hilliard","OH","43026","Franklin",39.9828,-83.1575,"Condo","Standard",2,1.5,1020,NA,1997,"Inactive",1700,"2024-11-22T00:00:00.000Z","2024-12-12T00:00:00.000Z",20
"1","3384-River-Landings-Blvd,-Hilliard,-OH-43026","3384 River Landings Blvd, Hilliard, OH 43026","3384 River Landings Blvd",NA,"Hilliard","OH","43026","Franklin",40.0499,-83.1085,"Single Family","Standard",3,2.5,2362,13068,2002,"Inactive",2400,"2024-09-20T00:00:00.000Z","2024-12-11T00:00:00.000Z",82
"1","5715-Ashcroft-Ln,-Unit-160E,-Hilliard,-OH-43026","5715 Ashcroft Ln, Unit 160E, Hilliard, OH 43026","5715 Ashcroft Ln","Unit 160E","Hilliard","OH","43026","Franklin",39.9851,-83.1569,"Condo","Standard",2,1.5,1132,436,1996,"Inactive",1449,"2024-10-22T00:00:00.000Z","2024-12-11T00:00:00.000Z",50
"1","5093-Singleton-Dr,-Hilliard,-OH-43026","5093 Singleton Dr, Hilliard, OH 43026","5093 Singleton Dr",NA,"Hilliard","OH","43026","Franklin",40.0099,-83.1449,"Townhouse","Standard",2,1.5,839,NA,NA,"Inactive",1400,"2024-12-05T00:00:00.000Z","2024-12-06T00:00:00.000Z",1
"1","4246-Kerr-Dr,-Hilliard,-OH-43026","4246 Kerr Dr, Hilliard, OH 43026","4246 Kerr Dr",NA,"Hilliard","OH","43026","Franklin",40.0383,-83.1617,"Single Family","Standard",3,1,960,NA,NA,"Inactive",1675,"2024-10-12T00:00:00.000Z","2024-12-06T00:00:00.000Z",55
"1","4916-Barbeau-Ln,-Hilliard,-OH-43026","4916 Barbeau Ln, Hilliard, OH 43026","4916 Barbeau Ln",NA,"Hilliard","OH","43026","Franklin",40.0508,-83.1871,"Single Family","Standard",4,4.5,4900,21780,2020,"Inactive",3700,"2024-10-18T00:00:00.000Z","2024-12-05T00:00:00.000Z",48
"1","5135-Singleton-Dr,-Unit-5135,-Hilliard,-OH-43026","5135 Singleton Dr, Unit 5135, Hilliard, OH 43026","5135 Singleton Dr","Unit 5135","Hilliard","OH","43026","Franklin",40.0097,-83.1456,"Condo","Standard",2,1.5,1050,NA,NA,"Inactive",1650,"2024-10-24T00:00:00.000Z","2024-12-04T00:00:00.000Z",41
"1","5221-Frisco-Dr,-Hilliard,-OH-43026","5221 Frisco Dr, Hilliard, OH 43026","5221 Frisco Dr",NA,"Hilliard","OH","43026","Franklin",40.0155,-83.1505,"Single Family","Standard",3,3,1630,NA,1990,"Inactive",2400,"2024-11-27T00:00:00.000Z","2024-12-03T00:00:00.000Z",6
"1","1898-Pomodoro-Dr,-Hilliard,-OH-43026","1898 Pomodoro Dr, Hilliard, OH 43026","1898 Pomodoro Dr",NA,"Hilliard","OH","43026","Franklin",39.9893,-83.1783,"Single Family","New Construction",4,3.5,2524,NA,2024,"Inactive",3150,"2024-10-30T00:00:00.000Z","2024-11-27T00:00:00.000Z",28
"1","1770-Messner-Dr,-Hilliard,-OH-43026","1770 Messner Dr, Hilliard, OH 43026","1770 Messner Dr",NA,"Hilliard","OH","43026","Franklin",39.9862,-83.1576,"Single Family","Standard",2,1.5,1178,NA,NA,"Inactive",1395,"2024-11-25T00:00:00.000Z","2024-11-26T00:00:00.000Z",1
"1","1694-Bennigan-Dr,-Hilliard,-OH-43026","1694 Bennigan Dr, Hilliard, OH 43026","1694 Bennigan Dr",NA,"Hilliard","OH","43026","Franklin",39.9849,-83.1558,"Condo","Standard",3,2,1100,NA,NA,"Inactive",1600,"2024-11-12T00:00:00.000Z","2024-11-26T00:00:00.000Z",14
"1","2246-Spindler-Rd,-Hilliard,-OH-43026","2246 Spindler Rd, Hilliard, OH 43026","2246 Spindler Rd",NA,"Hilliard","OH","43026","Franklin",39.9973,-83.1652,"Single Family","Standard",3,2.5,1658,8276,1994,"Inactive",2400,"2024-10-07T00:00:00.000Z","2024-11-25T00:00:00.000Z",49
"1","5270-Dutchess-Ln,-Hilliard,-OH-43026","5270 Dutchess Ln, Hilliard, OH 43026","5270 Dutchess Ln",NA,"Hilliard","OH","43026","Franklin",40.0511,-83.1598,"Condo","Standard",3,2.5,1344,NA,1989,"Inactive",1850,"2024-10-27T00:00:00.000Z","2024-11-22T00:00:00.000Z",26
"1","4914-Drayton-Rd,-Hilliard,-OH-43026","4914 Drayton Rd, Hilliard, OH 43026","4914 Drayton Rd",NA,"Hilliard","OH","43026","Franklin",40.0519,-83.1612,"Multi-Family","Standard",2,2,1214,NA,1991,"Inactive",1850,"2024-11-14T00:00:00.000Z","2024-11-21T00:00:00.000Z",7
"1","5179-Springdale-Blvd,-Hilliard,-OH-43026","5179 Springdale Blvd, Hilliard, OH 43026","5179 Springdale Blvd",NA,"Hilliard","OH","43026","Franklin",40.0151,-83.1494,"Single Family","Standard",3,2,1521,NA,NA,"Inactive",2250,"2024-11-15T00:00:00.000Z","2024-11-20T00:00:00.000Z",5
"1","4842-Augustus-Ct,-Hilliard,-OH-43026","4842 Augustus Ct, Hilliard, OH 43026","4842 Augustus Ct",NA,"Hilliard","OH","43026","Franklin",40.0503,-83.1643,"Single Family","Standard",3,2,1561,NA,NA,"Inactive",2200,"2024-11-12T00:00:00.000Z","2024-11-20T00:00:00.000Z",8
"1","4958-Baycroft-Dr,-Hilliard,-OH-43026","4958 Baycroft Dr, Hilliard, OH 43026","4958 Baycroft Dr",NA,"Hilliard","OH","43026","Franklin",40.0008,-83.1404,"Single Family","Standard",1,1,NA,NA,NA,"Inactive",700,"2024-07-12T00:00:00.000Z","2024-11-19T00:00:00.000Z",130
"1","4376-Winterringer-St,-Hilliard,-OH-43026","4376 Winterringer St, Hilliard, OH 43026","4376 Winterringer St",NA,"Hilliard","OH","43026","Franklin",40.0408,-83.1627,"Single Family","Standard",3,1,960,NA,NA,"Inactive",1795,"2024-11-15T00:00:00.000Z","2024-11-16T00:00:00.000Z",1
"1","5749-Annmary-Rd,-Hilliard,-OH-43026","5749 Annmary Rd, Hilliard, OH 43026","5749 Annmary Rd",NA,"Hilliard","OH","43026","Franklin",39.99,-83.1624,"Single Family","Standard",3,2.5,1729,4792,2003,"Inactive",2200,"2024-09-17T00:00:00.000Z","2024-11-16T00:00:00.000Z",60
"1","6273-Anguria-Dr,-Hilliard,-OH-43026","6273 Anguria Dr, Hilliard, OH 43026","6273 Anguria Dr",NA,"Hilliard","OH","43026","Franklin",39.9911,-83.1767,"Single Family","Standard",3,2.5,2390,NA,NA,"Inactive",2549,"2024-11-13T00:00:00.000Z","2024-11-14T00:00:00.000Z",1
"1","2036-Friston-Blvd,-Hilliard,-OH-43026","2036 Friston Blvd, Hilliard, OH 43026","2036 Friston Blvd",NA,"Hilliard","OH","43026","Franklin",39.9923,-83.1645,"Single Family","Standard",3,2,1770,NA,2002,"Inactive",2075,"2024-10-02T00:00:00.000Z","2024-11-07T00:00:00.000Z",36
"1","1678-Bennigan-Dr,-Hilliard,-OH-43026","1678 Bennigan Dr, Hilliard, OH 43026","1678 Bennigan Dr",NA,"Hilliard","OH","43026","Franklin",39.9845,-83.156,"Townhouse","Standard",2,1,932,NA,NA,"Inactive",1700,"2024-11-05T00:00:00.000Z","2024-11-06T00:00:00.000Z",1
"1","4816-Lady-Jane-Ave,-Hilliard,-OH-43026","4816 Lady Jane Ave, Hilliard, OH 43026","4816 Lady Jane Ave",NA,"Hilliard","OH","43026","Franklin",40.05,-83.1599,"Condo","Standard",3,2.5,1344,NA,NA,"Inactive",1850,"2024-10-27T00:00:00.000Z","2024-11-06T00:00:00.000Z",10
"1","5865-Summerlawn-Dr,-Hilliard,-OH-43026","5865 Summerlawn Dr, Hilliard, OH 43026","5865 Summerlawn Dr",NA,"Hilliard","OH","43026","Franklin",39.9924,-83.1643,"Single Family","Standard",4,3,1982,NA,2002,"Inactive",2490,"2024-10-25T00:00:00.000Z","2024-11-05T00:00:00.000Z",11
"1","3491-Fairway-Commons-Dr,-Hilliard,-OH-43026","3491 Fairway Commons Dr, Hilliard, OH 43026","3491 Fairway Commons Dr",NA,"Hilliard","OH","43026","Franklin",40.0213,-83.1844,"Single Family","Standard",3,3,2279,NA,NA,"Inactive",2300,"2024-10-06T00:00:00.000Z","2024-11-04T00:00:00.000Z",29
"1","3773-Westbrook-Dr,-Hilliard,-OH-43026","3773 Westbrook Dr, Hilliard, OH 43026","3773 Westbrook Dr",NA,"Hilliard","OH","43026","Franklin",40.0292,-83.1485,"Single Family","Standard",3,1,1205,NA,NA,"Inactive",1995,"2024-10-21T00:00:00.000Z","2024-11-02T00:00:00.000Z",12
"1","1963-Camino-Ln,-Hilliard,-OH-43026","1963 Camino Ln, Hilliard, OH 43026","1963 Camino Ln",NA,"Hilliard","OH","43026","Franklin",39.9912,-83.1561,"Townhouse","Standard",2,3,1024,NA,NA,"Inactive",1700,"2024-10-30T00:00:00.000Z","2024-10-31T00:00:00.000Z",1
"1","1594-Galleon-Blvd,-Hilliard,-OH-43026","1594 Galleon Blvd, Hilliard, OH 43026","1594 Galleon Blvd",NA,"Hilliard","OH","43026","Franklin",39.9838,-83.1619,"Single Family","Standard",3,2.5,2100,NA,NA,"Inactive",2250,"2024-06-06T00:00:00.000Z","2024-10-31T00:00:00.000Z",147
"1","6041-Glade-Run-Ct,-Hilliard,-OH-43026","6041 Glade Run Ct, Hilliard, OH 43026","6041 Glade Run Ct",NA,"Hilliard","OH","43026","Franklin",40.0068,-83.1756,"Single Family","Standard",4,2.5,2246,NA,2015,"Inactive",3000,"2024-10-22T00:00:00.000Z","2024-10-31T00:00:00.000Z",9
"1","5050-Silver-Bow-Dr,-Hilliard,-OH-43026","5050 Silver Bow Dr, Hilliard, OH 43026","5050 Silver Bow Dr",NA,"Hilliard","OH","43026","Franklin",40.0158,-83.1461,"Single Family","Standard",3,3,1542,NA,NA,"Inactive",2260,"2024-10-20T00:00:00.000Z","2024-10-30T00:00:00.000Z",10
"1","1697-Ridgebury-Dr,-Hilliard,-OH-43026","1697 Ridgebury Dr, Hilliard, OH 43026","1697 Ridgebury Dr",NA,"Hilliard","OH","43026","Franklin",39.9843,-83.1588,"Condo","Standard",2,2,NA,NA,NA,"Inactive",1800,"2023-08-31T00:00:00.000Z","2024-10-26T00:00:00.000Z",422
"1","4850-Lady-Jane-Ave,-Hilliard,-OH-43026","4850 Lady Jane Ave, Hilliard, OH 43026","4850 Lady Jane Ave",NA,"Hilliard","OH","43026","Franklin",40.0507,-83.16,"Single Family","Standard",3,2.5,1344,NA,NA,"Inactive",1550,"2024-10-24T00:00:00.000Z","2024-10-25T00:00:00.000Z",1
"1","5296-Dutchess-Ln,-Hilliard,-OH-43026","5296 Dutchess Ln, Hilliard, OH 43026","5296 Dutchess Ln",NA,"Hilliard","OH","43026","Franklin",40.0511,-83.1603,"Townhouse","Standard",3,2.5,1344,NA,NA,"Inactive",1775,"2024-10-23T00:00:00.000Z","2024-10-24T00:00:00.000Z",1
"1","5280-Frisco-Dr,-Hilliard,-OH-43026","5280 Frisco Dr, Hilliard, OH 43026","5280 Frisco Dr",NA,"Hilliard","OH","43026","Franklin",40.0152,-83.1522,"Single Family","Standard",3,1.5,1332,7841,1991,"Inactive",2300,"2024-07-15T00:00:00.000Z","2024-10-24T00:00:00.000Z",101
"1","5727-Kilbury-Ln,-Unit-123D,-Hilliard,-OH-43026","5727 Kilbury Ln, Unit 123D, Hilliard, OH 43026","5727 Kilbury Ln","Unit 123D","Hilliard","OH","43026","Franklin",39.9862,-83.1571,"Condo","Standard",2,2,1024,NA,NA,"Inactive",1750,"2024-10-14T00:00:00.000Z","2024-10-24T00:00:00.000Z",10
"1","4370-Circle-Dr,-Hilliard,-OH-43026","4370 Circle Dr, Hilliard, OH 43026","4370 Circle Dr",NA,"Hilliard","OH","43026","Franklin",40.0413,-83.158,"Single Family","Standard",3,1,1260,NA,NA,"Inactive",2000,"2024-08-21T00:00:00.000Z","2024-10-23T00:00:00.000Z",63
"1","5789-Redsand-Rd,-Hilliard,-OH-43026","5789 Redsand Rd, Hilliard, OH 43026","5789 Redsand Rd",NA,"Hilliard","OH","43026","Franklin",39.9939,-83.1628,"Single Family","Standard",3,2.5,1752,NA,NA,"Inactive",1875,"2024-10-06T00:00:00.000Z","2024-10-17T00:00:00.000Z",11
"1","5131-Aurora-Dr,-Hilliard,-OH-43026","5131 Aurora Dr, Hilliard, OH 43026","5131 Aurora Dr",NA,"Hilliard","OH","43026","Franklin",40.0177,-83.1492,"Single Family","Standard",3,2,1520,7405,1991,"Inactive",2350,"2024-09-24T00:00:00.000Z","2024-10-16T00:00:00.000Z",22
"1","5705-Andrea-Ln,-Hilliard,-OH-43026","5705 Andrea Ln, Hilliard, OH 43026","5705 Andrea Ln",NA,"Hilliard","OH","43026","Franklin",39.9927,-83.1582,"Single Family","Standard",3,1.5,1398,NA,NA,"Inactive",1885,"2024-09-09T00:00:00.000Z","2024-10-13T00:00:00.000Z",34
"1","5202-Crescent-Ct,-Hilliard,-OH-43026","5202 Crescent Ct, Hilliard, OH 43026","5202 Crescent Ct",NA,"Hilliard","OH","43026","Franklin",40.0426,-83.1583,"Single Family","Standard",4,2,1560,8276,1959,"Inactive",1899,"2024-09-22T00:00:00.000Z","2024-10-05T00:00:00.000Z",13
"1","5358-Whirlwind-Cove-Dr,-Hilliard,-OH-43026","5358 Whirlwind Cove Dr, Hilliard, OH 43026","5358 Whirlwind Cove Dr",NA,"Hilliard","OH","43026","Franklin",40.0056,-83.1517,"Single Family","Standard",3,1.5,1296,5227,1994,"Inactive",2250,"2024-07-26T00:00:00.000Z","2024-10-04T00:00:00.000Z",70
"1","3448-River-Narrows-Rd,-Hilliard,-OH-43026","3448 River Narrows Rd, Hilliard, OH 43026","3448 River Narrows Rd",NA,"Hilliard","OH","43026","Franklin",40.0497,-83.1102,"Single Family","Standard",3,2.5,2451,9148,1991,"Inactive",2400,"2024-09-27T00:00:00.000Z","2024-10-03T00:00:00.000Z",6
"1","4968-Silver-Bow-Dr,-Hilliard,-OH-43026","4968 Silver Bow Dr, Hilliard, OH 43026","4968 Silver Bow Dr",NA,"Hilliard","OH","43026","Franklin",40.016,-83.1439,"Single Family","Standard",3,1.5,1107,NA,NA,"Inactive",1597,"2024-10-01T00:00:00.000Z","2024-10-02T00:00:00.000Z",1
"1","5215-Wyandot-Pl,-Hilliard,-OH-43026","5215 Wyandot Pl, Hilliard, OH 43026","5215 Wyandot Pl",NA,"Hilliard","OH","43026","Franklin",40.0271,-83.1556,"Single Family","Standard",3,1,988,13068,1959,"Inactive",1800,"2024-09-14T00:00:00.000Z","2024-09-30T00:00:00.000Z",16
"1","1686-Bennigan-Dr,-Unit-1686,-Hilliard,-OH-43026","1686 Bennigan Dr, Unit 1686, Hilliard, OH 43026","1686 Bennigan Dr","Unit 1686","Hilliard","OH","43026","Franklin",39.9846,-83.1559,"Condo","Standard",2,1,1200,NA,NA,"Inactive",1540,"2024-07-18T00:00:00.000Z","2024-09-27T00:00:00.000Z",71
"1","3609-Hilliard-Station-Rd,-Hilliard,-OH-43026","3609 Hilliard Station Rd, Hilliard, OH 43026","3609 Hilliard Station Rd",NA,"Hilliard","OH","43026","Franklin",40.0226,-83.1098,"Condo","Standard",2,2,1152,436,1988,"Inactive",1449,"2024-06-24T00:00:00.000Z","2024-09-21T00:00:00.000Z",89
"1","2440-Pearson-Way,-Hilliard,-OH-43026","2440 Pearson Way, Hilliard, OH 43026","2440 Pearson Way",NA,"Hilliard","OH","43026","Franklin",40.001,-83.1572,"Single Family","Standard",3,2.5,1936,NA,NA,"Inactive",2350,"2024-09-20T00:00:00.000Z","2024-09-21T00:00:00.000Z",1
"1","4831-Drayton-Rd,-Hilliard,-OH-43026","4831 Drayton Rd, Hilliard, OH 43026","4831 Drayton Rd",NA,"Hilliard","OH","43026","Franklin",40.0502,-83.1626,"Condo","Standard",2,1,1112,NA,NA,"Inactive",1650,"2022-05-26T00:00:00.000Z","2024-09-17T00:00:00.000Z",845
"1","2515-Pressmen-Dr,-Hilliard,-OH-43026","2515 Pressmen Dr, Hilliard, OH 43026","2515 Pressmen Dr",NA,"Hilliard","OH","43026","Franklin",40.0027,-83.1598,"Single Family","Standard",4,3,2997,7841,1999,"Inactive",2900,"2024-08-01T00:00:00.000Z","2024-09-17T00:00:00.000Z",47
"1","5164-Gillette-Ave,-Hilliard,-OH-43026","5164 Gillette Ave, Hilliard, OH 43026","5164 Gillette Ave",NA,"Hilliard","OH","43026","Franklin",40.0206,-83.1504,"Single Family","Standard",3,2.5,1630,NA,NA,"Inactive",2100,"2024-09-13T00:00:00.000Z","2024-09-17T00:00:00.000Z",4
"1","5017-Shady-Oak-Dr,-Hilliard,-OH-43026","5017 Shady Oak Dr, Hilliard, OH 43026","5017 Shady Oak Dr",NA,"Hilliard","OH","43026","Franklin",40.0075,-83.1426,"Single Family","Standard",3,2,1547,NA,NA,"Inactive",2200,"2024-09-11T00:00:00.000Z","2024-09-12T00:00:00.000Z",1
"1","1736-Messner-Dr,-Hilliard,-OH-43026","1736 Messner Dr, Hilliard, OH 43026","1736 Messner Dr",NA,"Hilliard","OH","43026","Franklin",39.9853,-83.1577,"Single Family","Standard",2,1.5,832,NA,NA,"Inactive",1400,"2024-08-13T00:00:00.000Z","2024-09-11T00:00:00.000Z",29
"1","4835-Cosgray-Rd,-Hilliard,-OH-43026","4835 Cosgray Rd, Hilliard, OH 43026","4835 Cosgray Rd",NA,"Hilliard","OH","43026","Franklin",40.0559,-83.1824,"Single Family","Standard",3,2,1540,NA,NA,"Inactive",2349,"2024-09-10T00:00:00.000Z","2024-09-11T00:00:00.000Z",1
"1","4409-Leppert-Rd,-Hilliard,-OH-43026","4409 Leppert Rd, Hilliard, OH 43026","4409 Leppert Rd",NA,"Hilliard","OH","43026","Franklin",40.041,-83.1716,"Single Family","Standard",4,2.5,2200,NA,2002,"Inactive",2800,"2024-09-04T00:00:00.000Z","2024-09-10T00:00:00.000Z",6
"1","4620-Kriggsby-Blvd,-Hilliard,-OH-43026","4620 Kriggsby Blvd, Hilliard, OH 43026","4620 Kriggsby Blvd",NA,"Hilliard","OH","43026","Franklin",40.0207,-83.1376,"Single Family","Standard",3,2,1360,NA,NA,"Inactive",2205,"2022-07-08T00:00:00.000Z","2024-09-08T00:00:00.000Z",793
"1","1848-Messner-Dr,-Unit-1848,-Hilliard,-OH-43026","1848 Messner Dr, Unit 1848, Hilliard, OH 43026","1848 Messner Dr","Unit 1848","Hilliard","OH","43026","Franklin",39.9886,-83.1575,"Condo","Standard",2,2,1178,NA,NA,"Inactive",1940,"2024-08-27T00:00:00.000Z","2024-09-05T00:00:00.000Z",9
"1","3435-Fishinger-Mill-Dr,-Hilliard,-OH-43026","3435 Fishinger Mill Dr, Hilliard, OH 43026","3435 Fishinger Mill Dr",NA,"Hilliard","OH","43026","Franklin",40.0235,-83.1113,"Condo","Standard",2,2,1152,436,1988,"Inactive",1450,"2024-04-29T00:00:00.000Z","2024-09-03T00:00:00.000Z",127
"1","3671-Hilliard-Station-Rd,-Hilliard,-OH-43026","3671 Hilliard Station Rd, Hilliard, OH 43026","3671 Hilliard Station Rd",NA,"Hilliard","OH","43026","Franklin",40.0218,-83.1105,"Condo","Standard",2,2,1152,871,1988,"Inactive",1400,"2024-07-06T00:00:00.000Z","2024-09-03T00:00:00.000Z",59
"1","5248-Windflower-Ct,-Hilliard,-OH-43026","5248 Windflower Ct, Hilliard, OH 43026","5248 Windflower Ct",NA,"Hilliard","OH","43026","Franklin",40.0047,-83.1485,"Single Family","Standard",4,2.5,2044,NA,NA,"Inactive",2700,"2024-09-01T00:00:00.000Z","2024-09-02T00:00:00.000Z",1
"1","4841-Cemetery-Rd,-Hilliard,-OH-43026","4841 Cemetery Rd, Hilliard, OH 43026","4841 Cemetery Rd",NA,"Hilliard","OH","43026","Franklin",40.0309,-83.1457,"Single Family","Standard",3,2,1438,10454,1958,"Inactive",2100,"2024-08-14T00:00:00.000Z","2024-09-01T00:00:00.000Z",18
"1","4813-Drayton-Rd,-Hilliard,-OH-43026","4813 Drayton Rd, Hilliard, OH 43026","4813 Drayton Rd",NA,"Hilliard","OH","43026","Franklin",40.0498,-83.1624,"Multi-Family","Standard",3,1.5,1316,NA,NA,"Inactive",1850,"2024-08-30T00:00:00.000Z","2024-08-31T00:00:00.000Z",1
"1","1693-Zucchina-Dr,-Hilliard,-OH-43026","1693 Zucchina Dr, Hilliard, OH 43026","1693 Zucchina Dr",NA,"Hilliard","OH","43026","Franklin",39.9853,-83.1729,"Single Family","Standard",4,3.5,2891,NA,NA,"Inactive",2950,"2024-08-28T00:00:00.000Z","2024-08-29T00:00:00.000Z",1
"1","1886-Pomodoro-Dr,-Hilliard,-OH-43026","1886 Pomodoro Dr, Hilliard, OH 43026","1886 Pomodoro Dr",NA,"Hilliard","OH","43026","Franklin",39.9891,-83.1784,"Single Family","Standard",4,2.5,3008,NA,NA,"Inactive",3149,"2024-08-27T00:00:00.000Z","2024-08-28T00:00:00.000Z",1
"1","4149-Wayne-St,-Apt-2,-Hilliard,-OH-43026","4149 Wayne St, Apt 2, Hilliard, OH 43026","4149 Wayne St","Apt 2","Hilliard","OH","43026","Franklin",40.0367,-83.1588,"Apartment","Standard",2,1,980,NA,NA,"Inactive",1100,"2024-08-23T00:00:00.000Z","2024-08-24T00:00:00.000Z",1
"1","6127-Janes-Way,-Hilliard,-OH-43026","6127 Janes Way, Hilliard, OH 43026","6127 Janes Way",NA,"Hilliard","OH","43026","Franklin",40.0394,-83.1825,"Single Family","Standard",4,2.5,2836,10019,2007,"Inactive",3300,"2024-08-19T00:00:00.000Z","2024-08-20T00:00:00.000Z",1
"1","1731-Ridgebury-Dr,-Hilliard,-OH-43026","1731 Ridgebury Dr, Hilliard, OH 43026","1731 Ridgebury Dr",NA,"Hilliard","OH","43026","Franklin",39.9853,-83.1587,"Condo","Standard",2,1,1000,NA,NA,"Inactive",1350,"2024-08-18T00:00:00.000Z","2024-08-19T00:00:00.000Z",1
"1","5272-Windflower-Ct,-Hilliard,-OH-43026","5272 Windflower Ct, Hilliard, OH 43026","5272 Windflower Ct",NA,"Hilliard","OH","43026","Franklin",40.0045,-83.1492,"Single Family","Standard",4,2.5,2118,NA,NA,"Inactive",2400,"2024-08-06T00:00:00.000Z","2024-08-16T00:00:00.000Z",10
"1","5696-Ashcroft-Ln,-Unit-162A,-Hilliard,-OH-43026","5696 Ashcroft Ln, Unit 162A, Hilliard, OH 43026","5696 Ashcroft Ln","Unit 162A","Hilliard","OH","43026","Franklin",39.9854,-83.1563,"Townhouse","Standard",2,1,832,436,1996,"Inactive",1750,"2024-07-20T00:00:00.000Z","2024-08-09T00:00:00.000Z",20
"1","3695-Carriage-Run-Dr,-Hilliard,-OH-43026","3695 Carriage Run Dr, Hilliard, OH 43026","3695 Carriage Run Dr",NA,"Hilliard","OH","43026","Franklin",40.0274,-83.1458,"Single Family","Standard",4,2,NA,NA,1995,"Inactive",2295,"2023-07-18T00:00:00.000Z","2024-08-08T00:00:00.000Z",387
"1","2142-Ripple-Rd,-Hilliard,-OH-43026","2142 Ripple Rd, Hilliard, OH 43026","2142 Ripple Rd",NA,"Hilliard","OH","43026","Franklin",39.9952,-83.1646,"Single Family","Standard",3,2,NA,NA,2002,"Inactive",1995,"2023-07-19T00:00:00.000Z","2024-08-08T00:00:00.000Z",386
"1","5016-Scalton-Pl,-Hilliard,-OH-43026","5016 Scalton Pl, Hilliard, OH 43026","5016 Scalton Pl",NA,"Hilliard","OH","43026","Franklin",40.0024,-83.146,"Single Family","Standard",3,2,NA,NA,1999,"Inactive",1850,"2023-07-18T00:00:00.000Z","2024-08-08T00:00:00.000Z",387
"1","4890-Edwards-Farm-Rd,-Hilliard,-OH-43026","4890 Edwards Farm Rd, Hilliard, OH 43026","4890 Edwards Farm Rd",NA,"Hilliard","OH","43026","Franklin",40.0535,-83.1256,"Apartment","Standard",NA,NA,NA,NA,2016,"Inactive",950,"2022-12-22T00:00:00.000Z","2024-08-08T00:00:00.000Z",595
"1","3280-Mill-Run-Dr,-Hilliard,-OH-43026","3280 Mill Run Dr, Hilliard, OH 43026","3280 Mill Run Dr",NA,"Hilliard","OH","43026","Franklin",40.024,-83.1149,"Apartment","Standard",NA,NA,NA,NA,2011,"Inactive",1310,"2023-08-04T00:00:00.000Z","2024-08-08T00:00:00.000Z",370
"1","5204-Heritage-Ln,-Hilliard,-OH-43026","5204 Heritage Ln, Hilliard, OH 43026","5204 Heritage Ln",NA,"Hilliard","OH","43026","Franklin",40.0229,-83.1539,"Single Family","Standard",3,2,1102,NA,NA,"Inactive",1917,"2024-06-22T00:00:00.000Z","2024-08-06T00:00:00.000Z",45
"1","2846-Pheasant-Field-Dr,-Hilliard,-OH-43026","2846 Pheasant Field Dr, Hilliard, OH 43026","2846 Pheasant Field Dr",NA,"Hilliard","OH","43026","Franklin",40.0093,-83.1756,"Single Family","Standard",3,2.5,1546,NA,NA,"Inactive",2700,"2024-08-01T00:00:00.000Z","2024-08-06T00:00:00.000Z",5
"1","4170-Green-Clover-Dr,-Hilliard,-OH-43026","4170 Green Clover Dr, Hilliard, OH 43026","4170 Green Clover Dr",NA,"Hilliard","OH","43026","Franklin",40.0355,-83.1856,"Apartment",NA,2,2,NA,NA,2018,"Inactive",1550,"2022-12-22T00:00:00.000Z","2024-08-03T00:00:00.000Z",590
"1","5929-Paron-Pl,-Hilliard,-OH-43026","5929 Paron Pl, Hilliard, OH 43026","5929 Paron Pl",NA,"Hilliard","OH","43026","Franklin",40.0099,-83.1675,"Single Family",NA,4,2,NA,NA,2002,"Inactive",2095,"2023-07-17T00:00:00.000Z","2024-07-24T00:00:00.000Z",373
"1","4841-Stoneybrook-Blvd,-Unit-30D,-Hilliard,-OH-43026","4841 Stoneybrook Blvd, Unit 30D, Hilliard, OH 43026","4841 Stoneybrook Blvd","Unit 30D","Hilliard","OH","43026","Franklin",40.0171,-83.1415,"Townhouse",NA,2,2.5,1040,436,1989,"Inactive",1895,"2024-07-05T00:00:00.000Z","2024-07-24T00:00:00.000Z",19
"1","5305-Davidson-Rd,-Hilliard,-OH-43026","5305 Davidson Rd, Hilliard, OH 43026","5305 Davidson Rd",NA,"Hilliard","OH","43026","Franklin",40.0476,-83.1618,"Single Family",NA,3,2.5,1418,NA,NA,"Inactive",2155,"2023-07-19T00:00:00.000Z","2024-07-22T00:00:00.000Z",369
"1","5417-Davidson-Rd,-Hilliard,-OH-43026","5417 Davidson Rd, Hilliard, OH 43026","5417 Davidson Rd",NA,"Hilliard","OH","43026","Franklin",40.0473,-83.1649,"Single Family",NA,3,2,NA,NA,1986,"Inactive",1995,"2023-07-18T00:00:00.000Z","2024-07-17T00:00:00.000Z",365
"1","4816-Prince-Charles-Way,-Hilliard,-OH-43026","4816 Prince Charles Way, Hilliard, OH 43026","4816 Prince Charles Way",NA,"Hilliard","OH","43026","Franklin",40.0501,-83.1607,"Condo",NA,3,2.5,NA,NA,NA,"Inactive",1800,"2023-07-10T00:00:00.000Z","2024-07-09T00:00:00.000Z",365
"1","2712-Willow-Glen-Rd,-Hilliard,-OH-43026","2712 Willow Glen Rd, Hilliard, OH 43026","2712 Willow Glen Rd",NA,"Hilliard","OH","43026","Franklin",40.0066,-83.1623,"Single Family",NA,4,2.5,2036,NA,NA,"Inactive",2445,"2024-04-05T00:00:00.000Z","2024-07-03T00:00:00.000Z",89
"1","5479-Gillette-Ave,-Hilliard,-OH-43026","5479 Gillette Ave, Hilliard, OH 43026","5479 Gillette Ave",NA,"Hilliard","OH","43026","Franklin",40.0176,-83.1577,"Single Family",NA,3,2.5,1630,NA,NA,"Inactive",2375,"2023-07-03T00:00:00.000Z","2024-07-02T00:00:00.000Z",365
"1","1999-Friston-Blvd,-Hilliard,-OH-43026","1999 Friston Blvd, Hilliard, OH 43026","1999 Friston Blvd",NA,"Hilliard","OH","43026","Franklin",39.9914,-83.1651,"Single Family",NA,3,3,1729,NA,NA,"Inactive",2300,"2023-06-30T00:00:00.000Z","2024-06-29T00:00:00.000Z",365
"1","4901-Singleton-Dr,-Unit-9A,-Hilliard,-OH-43026","4901 Singleton Dr, Unit 9A, Hilliard, OH 43026","4901 Singleton Dr","Unit 9A","Hilliard","OH","43026","Franklin",40.0103,-83.1411,"Condo",NA,3,1.5,1031,871,1990,"Inactive",1875,"2024-06-18T00:00:00.000Z","2024-06-27T00:00:00.000Z",9
"1","1742-Messner-Dr,-Hilliard,-OH-43026","1742 Messner Dr, Hilliard, OH 43026","1742 Messner Dr",NA,"Hilliard","OH","43026","Franklin",39.9854,-83.1577,"Condo",NA,2,1,900,NA,1994,"Inactive",1450,"2024-06-10T00:00:00.000Z","2024-06-26T00:00:00.000Z",16
"1","3609-Hilliard-Station-Rd,-Hilliard-Station,-OH-43026","3609 Hilliard Station Rd, Hilliard Station, OH 43026","3609 Hilliard Station Rd",NA,"Hilliard Station","OH","43026","Franklin",40.0226,-83.1098,"Condo",NA,2,2,1152,NA,NA,"Inactive",1695,"2024-06-21T00:00:00.000Z","2024-06-25T00:00:00.000Z",4
"1","4908-Wallington-Dr,-Hilliard,-OH-43026","4908 Wallington Dr, Hilliard, OH 43026","4908 Wallington Dr",NA,"Hilliard","OH","43026","Franklin",40.0516,-83.1627,"Single Family",NA,3,2,1458,NA,NA,"Inactive",2595,"2023-06-26T00:00:00.000Z","2024-06-25T00:00:00.000Z",365
"1","5975-Cape-Coral-Ln,-Hilliard,-OH-43026","5975 Cape Coral Ln, Hilliard, OH 43026","5975 Cape Coral Ln",NA,"Hilliard","OH","43026","Franklin",39.9884,-83.1641,"Single Family",NA,3,2,1323,NA,NA,"Inactive",2035,"2024-05-31T00:00:00.000Z","2024-06-22T00:00:00.000Z",22
"1","2894-Wynneleaf-St,-Hilliard,-OH-43026","2894 Wynneleaf St, Hilliard, OH 43026","2894 Wynneleaf St",NA,"Hilliard","OH","43026","Franklin",40.0106,-83.1603,"Single Family",NA,4,2.5,3373,NA,NA,"Inactive",2825,"2023-06-23T00:00:00.000Z","2024-06-22T00:00:00.000Z",365
"1","5156-Tarlton-Blvd,-Hilliard,-OH-43026","5156 Tarlton Blvd, Hilliard, OH 43026","5156 Tarlton Blvd",NA,"Hilliard","OH","43026","Franklin",40.0556,-83.1871,"Single Family",NA,4,2.5,3342,12197,2019,"Inactive",3500,"2024-05-26T00:00:00.000Z","2024-06-21T00:00:00.000Z",26
"1","1797-Bennigan-Dr,-Hilliard,-OH-43026","1797 Bennigan Dr, Hilliard, OH 43026","1797 Bennigan Dr",NA,"Hilliard","OH","43026","Franklin",39.9874,-83.1558,"Townhouse",NA,2,1,832,NA,1997,"Inactive",1575,"2023-06-20T00:00:00.000Z","2024-06-19T00:00:00.000Z",365
"1","1720-Messner-Dr,-Unit-152F,-Hilliard,-OH-43026","1720 Messner Dr, Unit 152F, Hilliard, OH 43026","1720 Messner Dr","Unit 152F","Hilliard","OH","43026","Franklin",39.9849,-83.1577,"Condo",NA,2,1.5,832,436,1995,"Inactive",1495,"2024-06-05T00:00:00.000Z","2024-06-16T00:00:00.000Z",11
"1","1787-Hobbes-Dr,-Unit-1787,-Hilliard,-OH-43026","1787 Hobbes Dr, Unit 1787, Hilliard, OH 43026","1787 Hobbes Dr","Unit 1787","Hilliard","OH","43026","Franklin",39.9867,-83.1562,"Condo",NA,2,2,1132,NA,NA,"Inactive",1650,"2023-11-24T00:00:00.000Z","2024-06-14T00:00:00.000Z",203
"1","4629-Paxton-Dr-S,-Hilliard,-OH-43026","4629 Paxton Dr S, Hilliard, OH 43026","4629 Paxton Dr S",NA,"Hilliard","OH","43026","Franklin",40.0225,-83.1377,"Single Family",NA,4,1.5,1412,9583,1971,"Inactive",2185,"2024-05-22T00:00:00.000Z","2024-06-14T00:00:00.000Z",23
"1","4944-Stoneybrook-Blvd,-Unit-15D,-Hilliard,-OH-43026","4944 Stoneybrook Blvd, Unit 15D, Hilliard, OH 43026","4944 Stoneybrook Blvd","Unit 15D","Hilliard","OH","43026","Franklin",40.0174,-83.144,"Townhouse",NA,2,1.5,1040,436,1989,"Inactive",1895,"2024-05-30T00:00:00.000Z","2024-06-11T00:00:00.000Z",12
"1","3542-Patcon-Way,-Hilliard,-OH-43026","3542 Patcon Way, Hilliard, OH 43026","3542 Patcon Way",NA,"Hilliard","OH","43026","Franklin",40.0254,-83.1296,"Single Family",NA,4,2,1800,NA,1996,"Inactive",2350,"2024-05-03T00:00:00.000Z","2024-06-06T00:00:00.000Z",34
"1","4624-Adams-Ln,-Hilliard,-OH-43026","4624 Adams Ln, Hilliard, OH 43026","4624 Adams Ln",NA,"Hilliard","OH","43026","Franklin",40.0461,-83.159,"Apartment",NA,NA,NA,NA,NA,2015,"Inactive",1051,"2023-06-05T00:00:00.000Z","2024-06-04T00:00:00.000Z",365
"1","4855-Dori-Park-Dr,-Hilliard,-OH-43026","4855 Dori Park Dr, Hilliard, OH 43026","4855 Dori Park Dr",NA,"Hilliard","OH","43026","Franklin",39.996,-83.1405,"Single Family",NA,3,2.5,1728,6098,1998,"Inactive",2500,"2024-05-06T00:00:00.000Z","2024-06-01T00:00:00.000Z",26
"1","5706-Snow-Dr,-Unit-127B,-Hilliard,-OH-43026","5706 Snow Dr, Unit 127B, Hilliard, OH 43026","5706 Snow Dr","Unit 127B","Hilliard","OH","43026","Franklin",39.9859,-83.1565,"Condo",NA,2,1.5,832,NA,NA,"Inactive",1525,"2024-05-12T00:00:00.000Z","2024-05-31T00:00:00.000Z",19
"1","1710-Messner-Dr,-Unit-154C,-Hilliard,-OH-43026","1710 Messner Dr, Unit 154C, Hilliard, OH 43026","1710 Messner Dr","Unit 154C","Hilliard","OH","43026","Franklin",39.9846,-83.1577,"Townhouse",NA,2,2,1248,436,1995,"Inactive",1895,"2024-04-11T00:00:00.000Z","2024-05-27T00:00:00.000Z",46
"1","5305-Frisco-Dr,-Hilliard,-OH-43026","5305 Frisco Dr, Hilliard, OH 43026","5305 Frisco Dr",NA,"Hilliard","OH","43026","Franklin",40.0146,-83.1529,"Single Family",NA,3,2.5,1982,NA,NA,"Inactive",2630,"2023-05-26T00:00:00.000Z","2024-05-25T00:00:00.000Z",365
"1","5887-Cape-Coral-Ln,-Hilliard,-OH-43026","5887 Cape Coral Ln, Hilliard, OH 43026","5887 Cape Coral Ln",NA,"Hilliard","OH","43026","Franklin",39.9883,-83.1618,"Single Family",NA,3,1.5,1220,NA,NA,"Inactive",2195,"2024-02-17T00:00:00.000Z","2024-05-25T00:00:00.000Z",98
"1","5084-Bressler-Dr,-Hilliard,-OH-43026","5084 Bressler Dr, Hilliard, OH 43026","5084 Bressler Dr",NA,"Hilliard","OH","43026","Franklin",40.0062,-83.1449,"Single Family",NA,3,1,1708,6970,1990,"Inactive",2200,"2024-04-07T00:00:00.000Z","2024-05-23T00:00:00.000Z",46
"1","4961-Singleton-Dr,-Hilliard,-OH-43026","4961 Singleton Dr, Hilliard, OH 43026","4961 Singleton Dr",NA,"Hilliard","OH","43026","Franklin",40.0097,-83.1423,"Townhouse",NA,3,1.5,1206,NA,1990,"Inactive",2075,"2023-05-23T00:00:00.000Z","2024-05-22T00:00:00.000Z",365
"1","2358-Walborn-Dr,-Hilliard,-OH-43026","2358 Walborn Dr, Hilliard, OH 43026","2358 Walborn Dr",NA,"Hilliard","OH","43026","Franklin",40.0004,-83.1603,"Single Family",NA,3,2,1682,NA,NA,"Inactive",2000,"2024-05-20T00:00:00.000Z","2024-05-22T00:00:00.000Z",2
"1","3846-Carriage-Run-Dr,-Hilliard,-OH-43026","3846 Carriage Run Dr, Hilliard, OH 43026","3846 Carriage Run Dr",NA,"Hilliard","OH","43026","Franklin",40.0307,-83.1472,"Single Family",NA,3,2,NA,NA,1997,"Inactive",1695,"2023-05-22T00:00:00.000Z","2024-05-21T00:00:00.000Z",365
"1","1608-Bennigan-Dr,-Unit-178F,-Hilliard,-OH-43026","1608 Bennigan Dr, Unit 178F, Hilliard, OH 43026","1608 Bennigan Dr","Unit 178F","Hilliard","OH","43026","Franklin",39.9825,-83.1563,"Condo",NA,3,1.5,832,436,1996,"Inactive",2000,"2024-04-23T00:00:00.000Z","2024-05-18T00:00:00.000Z",25
"1","2167-Ripple-Rd,-Hilliard,-OH-43026","2167 Ripple Rd, Hilliard, OH 43026","2167 Ripple Rd",NA,"Hilliard","OH","43026","Franklin",39.9957,-83.1653,"Single Family",NA,3,2,1190,NA,NA,"Inactive",1960,"2024-05-14T00:00:00.000Z","2024-05-15T00:00:00.000Z",1
"1","4906-Crockett-Dr,-Hilliard,-OH-43026","4906 Crockett Dr, Hilliard, OH 43026","4906 Crockett Dr",NA,"Hilliard","OH","43026","Franklin",40.0138,-83.1416,"Single Family",NA,3,2.5,1624,NA,NA,"Inactive",2555,"2023-05-14T00:00:00.000Z","2024-05-13T00:00:00.000Z",365
"1","4585-Marilyn-St,-Hilliard,-OH-43026","4585 Marilyn St, Hilliard, OH 43026","4585 Marilyn St",NA,"Hilliard","OH","43026","Franklin",40.0445,-83.1625,"Single Family",NA,3,1.5,1458,NA,NA,"Inactive",2045,"2023-05-12T00:00:00.000Z","2024-05-11T00:00:00.000Z",365
"1","1896-Dry-Wash-Rd,-Hilliard,-OH-43026","1896 Dry Wash Rd, Hilliard, OH 43026","1896 Dry Wash Rd",NA,"Hilliard","OH","43026","Franklin",39.99,-83.1615,"Single Family",NA,3,2.5,1700,NA,NA,"Inactive",2650,"2024-04-15T00:00:00.000Z","2024-05-11T00:00:00.000Z",26
"1","1645-Bennigan-Dr,-Hilliard,-OH-43026","1645 Bennigan Dr, Hilliard, OH 43026","1645 Bennigan Dr",NA,"Hilliard","OH","43026","Franklin",39.9834,-83.1566,"Condo",NA,2,2.5,1024,NA,NA,"Inactive",1485,"2024-05-04T00:00:00.000Z","2024-05-10T00:00:00.000Z",6
"1","5903-Brookmont-Dr,-Hilliard,-OH-43026","5903 Brookmont Dr, Hilliard, OH 43026","5903 Brookmont Dr",NA,"Hilliard","OH","43026","Franklin",40.003,-83.1664,"Single Family",NA,3,2.5,1364,NA,NA,"Inactive",1897,"2023-05-09T00:00:00.000Z","2024-05-08T00:00:00.000Z",365
"1","4909-Silver-Bow-Dr,-Hilliard,-OH-43026","4909 Silver Bow Dr, Hilliard, OH 43026","4909 Silver Bow Dr",NA,"Hilliard","OH","43026","Franklin",40.0156,-83.1423,"Single Family",NA,3,2.5,1624,7405,1990,"Inactive",2200,"2024-04-19T00:00:00.000Z","2024-05-05T00:00:00.000Z",16
"1","4858-Lady-Jane-Ave,-Hilliard,-OH-43026","4858 Lady Jane Ave, Hilliard, OH 43026","4858 Lady Jane Ave",NA,"Hilliard","OH","43026","Franklin",40.0509,-83.16,"Condo",NA,3,2.5,1344,NA,1989,"Inactive",1800,"2024-03-11T00:00:00.000Z","2024-05-04T00:00:00.000Z",54
"1","5641-Van-Wert-Dr,-Columbus,-OH-43026","5641 Van Wert Dr, Columbus, OH 43026","5641 Van Wert Dr",NA,"Columbus","OH","43026","Franklin",40,-83.1582,"Single Family",NA,4,2.5,1941,NA,NA,"Inactive",2425,"2024-04-20T00:00:00.000Z","2024-05-03T00:00:00.000Z",13
"1","4460-Mountain-Laurel-Dr,-Hilliard,-OH-43026","4460 Mountain Laurel Dr, Hilliard, OH 43026","4460 Mountain Laurel Dr",NA,"Hilliard","OH","43026","Franklin",40.0442,-83.1375,"Apartment",NA,1,1,NA,NA,NA,"Inactive",1073,"2023-05-03T00:00:00.000Z","2024-05-02T00:00:00.000Z",365
"1","5300-Catalina-Circle-Dr,-Hilliard,-OH-43026","5300 Catalina Circle Dr, Hilliard, OH 43026","5300 Catalina Circle Dr",NA,"Hilliard","OH","43026","Franklin",40.0028,-83.1493,"Apartment",NA,NA,1,NA,NA,1998,"Inactive",1125,"2023-05-03T00:00:00.000Z","2024-05-02T00:00:00.000Z",365
"1","5641-Van-Wert-Dr,-Hilliard,-OH-43026","5641 Van Wert Dr, Hilliard, OH 43026","5641 Van Wert Dr",NA,"Hilliard","OH","43026","Franklin",40,-83.1582,"Single Family",NA,4,2.5,1941,NA,NA,"Inactive",2425,"2024-04-19T00:00:00.000Z","2024-05-02T00:00:00.000Z",13
"1","4515-Avery-Rd,-Hilliard,-OH-43026","4515 Avery Rd, Hilliard, OH 43026","4515 Avery Rd",NA,"Hilliard","OH","43026","Franklin",40.0439,-83.1579,"Single Family",NA,3,1,1068,NA,1959,"Inactive",1649,"2024-04-23T00:00:00.000Z","2024-05-01T00:00:00.000Z",8
"1","5092-Drivemere-Rd,-Hilliard,-OH-43026","5092 Drivemere Rd, Hilliard, OH 43026","5092 Drivemere Rd",NA,"Hilliard","OH","43026","Franklin",40.0272,-83.1515,"Single Family",NA,3,1,981,7841,1970,"Inactive",1795,"2023-05-01T00:00:00.000Z","2024-04-30T00:00:00.000Z",365
"1","5183-Granite-Dr,-Hilliard,-OH-43026","5183 Granite Dr, Hilliard, OH 43026","5183 Granite Dr",NA,"Hilliard","OH","43026","Franklin",40.0178,-83.1502,"Single Family",NA,3,2.5,1886,7405,1991,"Inactive",2500,"2024-04-04T00:00:00.000Z","2024-04-26T00:00:00.000Z",22
"1","1669-Blackhorse-Ln,-Hilliard,-OH-43026","1669 Blackhorse Ln, Hilliard, OH 43026","1669 Blackhorse Ln",NA,"Hilliard","OH","43026","Franklin",39.9845,-83.1573,"Single Family",NA,2,2,NA,NA,1995,"Inactive",1250,"2023-04-26T00:00:00.000Z","2024-04-25T00:00:00.000Z",365
"1","3560-Fishinger-Mill-Dr,-Hilliard,-OH-43026","3560 Fishinger Mill Dr, Hilliard, OH 43026","3560 Fishinger Mill Dr",NA,"Hilliard","OH","43026","Franklin",40.0248,-83.1115,"Condo",NA,2,2,1189,436,1988,"Inactive",1650,"2024-03-11T00:00:00.000Z","2024-04-23T00:00:00.000Z",43
"1","4667-Point-Pleasant-Dr,-Hilliard,-OH-43026","4667 Point Pleasant Dr, Hilliard, OH 43026","4667 Point Pleasant Dr",NA,"Hilliard","OH","43026","Franklin",40.0204,-83.1387,"Single Family",NA,3,1,1200,NA,NA,"Inactive",2000,"2024-04-13T00:00:00.000Z","2024-04-21T00:00:00.000Z",8
"1","1621-Holland-Dr,-Unit-1621,-Hilliard,-OH-43026","1621 Holland Dr, Unit 1621, Hilliard, OH 43026","1621 Holland Dr","Unit 1621","Hilliard","OH","43026","Franklin",39.983,-83.1578,"Condo",NA,2,2,1100,NA,NA,"Inactive",1650,"2024-03-11T00:00:00.000Z","2024-04-18T00:00:00.000Z",38
"1","5298-Franklin-St,-Hilliard,-OH-43026","5298 Franklin St, Hilliard, OH 43026","5298 Franklin St",NA,"Hilliard","OH","43026","Franklin",40.0323,-83.1582,"Single Family",NA,3,1.5,1880,NA,NA,"Inactive",1825,"2024-03-13T00:00:00.000Z","2024-04-18T00:00:00.000Z",36
"1","1822-Messner-Dr,-Unit-61E,-Hilliard,-OH-43026","1822 Messner Dr, Unit 61E, Hilliard, OH 43026","1822 Messner Dr","Unit 61E","Hilliard","OH","43026","Franklin",39.9878,-83.1575,"Condo",NA,2,4,1342,NA,NA,"Inactive",1875,"2024-03-08T00:00:00.000Z","2024-04-17T00:00:00.000Z",40
"1","3232-Paradise-Ave,-Hilliard,-OH-43026","3232 Paradise Ave, Hilliard, OH 43026","3232 Paradise Ave",NA,"Hilliard","OH","43026","Franklin",40.0176,-83.1481,"Single Family",NA,3,2.5,1600,NA,NA,"Inactive",2500,"2024-03-21T00:00:00.000Z","2024-04-08T00:00:00.000Z",18
"1","4522-Hickory-Chase-Way,-Unit-Walnut,-Hilliard,-OH-43026","4522 Hickory Chase Way, Unit Walnut, Hilliard, OH 43026","4522 Hickory Chase Way","Unit Walnut","Hilliard","OH","43026","Franklin",40.0462,-83.1352,"Multi-Family",NA,2,1.5,968,NA,2022,"Inactive",4300,"2023-04-28T00:00:00.000Z","2024-04-07T00:00:00.000Z",345
"1","4522-Hickory-Chase-Way,-Unit-Sycamore,-Hilliard,-OH-43026","4522 Hickory Chase Way, Unit Sycamore, Hilliard, OH 43026","4522 Hickory Chase Way","Unit Sycamore","Hilliard","OH","43026","Franklin",40.0462,-83.1352,"Multi-Family",NA,2,1,974,NA,2022,"Inactive",4300,"2023-04-28T00:00:00.000Z","2024-04-07T00:00:00.000Z",345
"1","5823-Coldcreek-Dr,-Hilliard,-OH-43026","5823 Coldcreek Dr, Hilliard, OH 43026","5823 Coldcreek Dr",NA,"Hilliard","OH","43026","Franklin",39.9955,-83.1635,"Single Family",NA,3,2,NA,NA,2002,"Inactive",1895,"2023-03-30T00:00:00.000Z","2024-03-29T00:00:00.000Z",365
"1","3362-Eastwoodlands-Trl,-Hilliard,-OH-43026","3362 Eastwoodlands Trl, Hilliard, OH 43026","3362 Eastwoodlands Trl",NA,"Hilliard","OH","43026","Franklin",40.0229,-83.1116,"Single Family",NA,3,3.5,1568,NA,1988,"Inactive",2199,"2024-03-06T00:00:00.000Z","2024-03-29T00:00:00.000Z",23
"1","5084-Springdale-Blvd,-Unit-31D,-Hilliard,-OH-43026","5084 Springdale Blvd, Unit 31D, Hilliard, OH 43026","5084 Springdale Blvd","Unit 31D","Hilliard","OH","43026","Franklin",40.0166,-83.1473,"Condo",NA,2,1.5,832,436,1992,"Inactive",1700,"2024-03-21T00:00:00.000Z","2024-03-25T00:00:00.000Z",4
"1","5039-Inspiration-Dr,-Hilliard,-OH-43026","5039 Inspiration Dr, Hilliard, OH 43026","5039 Inspiration Dr",NA,"Hilliard","OH","43026","Franklin",40.0137,-83.1454,"Single Family",NA,3,2.5,1542,NA,NA,"Inactive",2340,"2023-03-25T00:00:00.000Z","2024-03-24T00:00:00.000Z",365
"1","1816-Ridgebury-Dr,-Unit-C,-Hilliard,-OH-43026","1816 Ridgebury Dr, Unit C, Hilliard, OH 43026","1816 Ridgebury Dr","Unit C","Hilliard","OH","43026","Franklin",39.9876,-83.1582,"Townhouse",NA,2,2.5,1024,436,1993,"Inactive",1900,"2024-02-09T00:00:00.000Z","2024-03-21T00:00:00.000Z",41
"1","5777-Wooden-Plank-Rd,-Hilliard,-OH-43026","5777 Wooden Plank Rd, Hilliard, OH 43026","5777 Wooden Plank Rd",NA,"Hilliard","OH","43026","Franklin",39.9892,-83.1634,"Single Family",NA,3,2,1404,NA,NA,"Inactive",2335,"2023-03-16T00:00:00.000Z","2024-03-15T00:00:00.000Z",365
"1","5241-Frisco-Dr,-Hilliard,-OH-43026","5241 Frisco Dr, Hilliard, OH 43026","5241 Frisco Dr",NA,"Hilliard","OH","43026","Franklin",40.0152,-83.1511,"Single Family",NA,3,2.5,1586,NA,NA,"Inactive",2515,"2024-01-06T00:00:00.000Z","2024-03-14T00:00:00.000Z",68
"1","4807-Cemetery-Rd,-Hilliard,-OH-43026","4807 Cemetery Rd, Hilliard, OH 43026","4807 Cemetery Rd",NA,"Hilliard","OH","43026","Franklin",40.0309,-83.1449,"Single Family",NA,3,1.5,1360,NA,1954,"Inactive",1850,"2024-02-13T00:00:00.000Z","2024-03-14T00:00:00.000Z",30
"1","4416-Swenson-St,-Hilliard,-OH-43026","4416 Swenson St, Hilliard, OH 43026","4416 Swenson St",NA,"Hilliard","OH","43026","Franklin",40.0183,-83.1314,"Single Family",NA,3,2,NA,NA,1993,"Inactive",1995,"2023-03-14T00:00:00.000Z","2024-03-13T00:00:00.000Z",365
"1","4601-Paxton-Dr-S,-Hilliard,-OH-43026","4601 Paxton Dr S, Hilliard, OH 43026","4601 Paxton Dr S",NA,"Hilliard","OH","43026","Franklin",40.0219,-83.1372,"Single Family",NA,4,1.5,1524,NA,NA,"Inactive",1975,"2023-03-13T00:00:00.000Z","2024-03-12T00:00:00.000Z",365
"1","3029-Bismark-Dr,-Columbus,-OH-43026","3029 Bismark Dr, Columbus, OH 43026","3029 Bismark Dr",NA,"Columbus","OH","43026","Franklin",40.0135,-83.1498,"Single Family",NA,3,1.5,1221,NA,NA,"Inactive",2170,"2023-03-11T00:00:00.000Z","2024-03-10T00:00:00.000Z",365
"1","3029-Bismark-Dr,-Hilliard,-OH-43026","3029 Bismark Dr, Hilliard, OH 43026","3029 Bismark Dr",NA,"Hilliard","OH","43026","Franklin",40.0135,-83.1498,"Single Family",NA,3,1.5,1221,NA,NA,"Inactive",2170,"2023-03-10T00:00:00.000Z","2024-03-09T00:00:00.000Z",365
"1","5708-Valencia-Park-Blvd,-Unit-35A,-Hilliard,-OH-43026","5708 Valencia Park Blvd, Unit 35A, Hilliard, OH 43026","5708 Valencia Park Blvd","Unit 35A","Hilliard","OH","43026","Franklin",39.9923,-83.1582,"Condo",NA,3,2.5,1432,436,1993,"Inactive",1950,"2024-02-12T00:00:00.000Z","2024-03-09T00:00:00.000Z",26
"1","4755-Drayton-Rd,-Unit-4755,-Hilliard,-OH-43026","4755 Drayton Rd, Unit 4755, Hilliard, OH 43026","4755 Drayton Rd","Unit 4755","Hilliard","OH","43026","Franklin",40.0487,-83.1614,"Apartment",NA,2,1.5,1600,NA,NA,"Inactive",1700,"2024-02-16T00:00:00.000Z","2024-03-09T00:00:00.000Z",22
"1","5708-Valencia-Park-Blvd,-Hilliard,-OH-43026","5708 Valencia Park Blvd, Hilliard, OH 43026","5708 Valencia Park Blvd",NA,"Hilliard","OH","43026","Franklin",39.9923,-83.1582,"Condo",NA,3,2.5,1432,NA,NA,"Inactive",1950,"2023-11-06T00:00:00.000Z","2024-03-08T00:00:00.000Z",123
"1","4561-Kriggsby-Blvd,-Hilliard,-OH-43026","4561 Kriggsby Blvd, Hilliard, OH 43026","4561 Kriggsby Blvd",NA,"Hilliard","OH","43026","Franklin",40.0204,-83.136,"Single Family",NA,4,2,NA,NA,1997,"Inactive",1995,"2023-03-07T00:00:00.000Z","2024-03-06T00:00:00.000Z",365
"1","1719-Messner-Dr,-Unit-153E,-Hilliard,-OH-43026","1719 Messner Dr, Unit 153E, Hilliard, OH 43026","1719 Messner Dr","Unit 153E","Hilliard","OH","43026","Franklin",39.9848,-83.1581,"Condo",NA,2,1.5,832,436,1995,"Inactive",1850,"2024-01-15T00:00:00.000Z","2024-03-05T00:00:00.000Z",50
"1","5820-Lonerise-Ln,-Hilliard,-OH-43026","5820 Lonerise Ln, Hilliard, OH 43026","5820 Lonerise Ln",NA,"Hilliard","OH","43026","Franklin",39.9923,-83.163,"Single Family",NA,4,2,NA,NA,2003,"Inactive",1995,"2023-03-04T00:00:00.000Z","2024-03-03T00:00:00.000Z",365
"1","5789-Lonerise-Ln,-Hilliard,-OH-43026","5789 Lonerise Ln, Hilliard, OH 43026","5789 Lonerise Ln",NA,"Hilliard","OH","43026","Franklin",39.9918,-83.1623,"Single Family",NA,3,2,1193,NA,NA,"Inactive",2010,"2023-02-28T00:00:00.000Z","2024-02-28T00:00:00.000Z",365
"1","4860-Jeannette-Rd,-Hilliard,-OH-43026","4860 Jeannette Rd, Hilliard, OH 43026","4860 Jeannette Rd",NA,"Hilliard","OH","43026","Franklin",40.0261,-83.1451,"Single Family",NA,3,2,1500,NA,NA,"Inactive",1995,"2023-02-28T00:00:00.000Z","2024-02-28T00:00:00.000Z",365
"1","5076-Renmill-Dr,-Columbus,-OH-43026","5076 Renmill Dr, Columbus, OH 43026","5076 Renmill Dr",NA,"Columbus","OH","43026","Franklin",40.004,-83.1444,"Single Family",NA,4,2.5,1798,NA,NA,"Inactive",2275,"2023-09-27T00:00:00.000Z","2024-02-24T00:00:00.000Z",150
"1","5076-Renmill-Dr,-Hilliard,-OH-43026","5076 Renmill Dr, Hilliard, OH 43026","5076 Renmill Dr",NA,"Hilliard","OH","43026","Franklin",40.004,-83.1444,"Single Family",NA,4,2.5,1798,NA,NA,"Inactive",2320,"2023-02-23T00:00:00.000Z","2024-02-23T00:00:00.000Z",365
"1","1843-Messner-Dr,-Hilliard,-OH-43026","1843 Messner Dr, Hilliard, OH 43026","1843 Messner Dr",NA,"Hilliard","OH","43026","Franklin",39.9878,-83.1577,"Condo",NA,2,1.5,1024,436,1994,"Inactive",1750,"2024-02-06T00:00:00.000Z","2024-02-23T00:00:00.000Z",17
"1","5789-Lonerise-Ln,-Columbus,-OH-43026","5789 Lonerise Ln, Columbus, OH 43026","5789 Lonerise Ln",NA,"Columbus","OH","43026","Franklin",39.9918,-83.1623,"Single Family",NA,3,2,1193,NA,NA,"Inactive",1975,"2024-02-14T00:00:00.000Z","2024-02-23T00:00:00.000Z",9
"1","4943-Singleton-Dr,-Unit-13B,-Hilliard,-OH-43026","4943 Singleton Dr, Unit 13B, Hilliard, OH 43026","4943 Singleton Dr","Unit 13B","Hilliard","OH","43026","Franklin",40.0101,-83.1419,"Condo",NA,2,2,839,436,1990,"Inactive",1750,"2024-02-05T00:00:00.000Z","2024-02-21T00:00:00.000Z",16
"1","2370-Walborn-Dr,-Hilliard,-OH-43026","2370 Walborn Dr, Hilliard, OH 43026","2370 Walborn Dr",NA,"Hilliard","OH","43026","Franklin",40.0005,-83.1607,"Single Family",NA,3,2.5,2036,NA,NA,"Inactive",2500,"2024-01-29T00:00:00.000Z","2024-02-20T00:00:00.000Z",22
"1","5691-Saucony-Dr,-Columbus,-OH-43026","5691 Saucony Dr, Columbus, OH 43026","5691 Saucony Dr",NA,"Columbus","OH","43026","Franklin",39.9973,-83.1589,"Single Family",NA,3,2.5,1647,NA,NA,"Inactive",2290,"2024-02-01T00:00:00.000Z","2024-02-19T00:00:00.000Z",18
"1","5691-Saucony-Dr,-Hilliard,-OH-43026","5691 Saucony Dr, Hilliard, OH 43026","5691 Saucony Dr",NA,"Hilliard","OH","43026","Franklin",39.9973,-83.1589,"Single Family",NA,3,2.5,1647,NA,NA,"Inactive",2290,"2023-02-17T00:00:00.000Z","2024-02-17T00:00:00.000Z",365
"1","5039-Inspiration-Dr,-Columbus,-OH-43026","5039 Inspiration Dr, Columbus, OH 43026","5039 Inspiration Dr",NA,"Columbus","OH","43026","Franklin",40.0137,-83.1454,"Single Family",NA,3,2.5,1542,NA,NA,"Inactive",2305,"2024-02-14T00:00:00.000Z","2024-02-16T00:00:00.000Z",2
"1","2760-Lyndley-Ct,-Hilliard,-OH-43026","2760 Lyndley Ct, Hilliard, OH 43026","2760 Lyndley Ct",NA,"Hilliard","OH","43026","Franklin",40.0088,-83.1442,"Single Family",NA,3,2,1336,6534,1990,"Inactive",2095,"2024-01-30T00:00:00.000Z","2024-02-15T00:00:00.000Z",16
"1","4336-Creekbend-Dr,-Hilliard,-OH-43026","4336 Creekbend Dr, Hilliard, OH 43026","4336 Creekbend Dr",NA,"Hilliard","OH","43026","Franklin",40.0389,-83.1812,"Single Family",NA,4,2.5,2494,11761,2005,"Inactive",3800,"2023-12-27T00:00:00.000Z","2024-02-10T00:00:00.000Z",45
"1","5175-Wyandot-Pl,-Hilliard,-OH-43026","5175 Wyandot Pl, Hilliard, OH 43026","5175 Wyandot Pl",NA,"Hilliard","OH","43026","Franklin",40.0263,-83.154,"Single Family",NA,5,2,972,7405,1959,"Inactive",2500,"2023-12-16T00:00:00.000Z","2024-01-20T00:00:00.000Z",35
"1","5915-Brookmont-Dr,-Hilliard,-OH-43026","5915 Brookmont Dr, Hilliard, OH 43026","5915 Brookmont Dr",NA,"Hilliard","OH","43026","Franklin",40.003,-83.1668,"Single Family",NA,3,3,1662,NA,NA,"Inactive",2300,"2023-12-06T00:00:00.000Z","2024-01-18T00:00:00.000Z",43
"1","1778-Ridgebury-Dr,-Hilliard,-OH-43026","1778 Ridgebury Dr, Hilliard, OH 43026","1778 Ridgebury Dr",NA,"Hilliard","OH","43026","Franklin",39.9866,-83.1582,"Single Family",NA,2,1,832,NA,1994,"Inactive",1495,"2023-11-01T00:00:00.000Z","2024-01-14T00:00:00.000Z",74
"1","4569-Tremont-Club-Dr,-Hilliard,-OH-43026","4569 Tremont Club Dr, Hilliard, OH 43026","4569 Tremont Club Dr",NA,"Hilliard","OH","43026","Franklin",40.0457,-83.1447,"Condo",NA,3,2.5,1932,NA,NA,"Inactive",2800,"2023-12-03T00:00:00.000Z","2024-01-14T00:00:00.000Z",42
"1","5800-Brinkwater-Blvd,-Columbus,-OH-43026","5800 Brinkwater Blvd, Columbus, OH 43026","5800 Brinkwater Blvd",NA,"Columbus","OH","43026","Franklin",39.9931,-83.1625,"Single Family",NA,3,2.5,1545,NA,NA,"Inactive",2180,"2023-01-13T00:00:00.000Z","2024-01-13T00:00:00.000Z",365
"1","5073-Singleton-Dr,-Hilliard,-OH-43026","5073 Singleton Dr, Hilliard, OH 43026","5073 Singleton Dr",NA,"Hilliard","OH","43026","Franklin",40.0096,-83.1444,"Townhouse",NA,2,1.5,NA,NA,NA,"Inactive",1450,"2023-12-21T00:00:00.000Z","2024-01-12T00:00:00.000Z",22
"1","2015-Jasper-Ln,-Unit-25B,-Hilliard,-OH-43026","2015 Jasper Ln, Unit 25B, Hilliard, OH 43026","2015 Jasper Ln","Unit 25B","Hilliard","OH","43026","Franklin",39.9918,-83.1568,"Condo",NA,2,1.5,1024,871,1992,"Inactive",1500,"2023-10-22T00:00:00.000Z","2024-01-10T00:00:00.000Z",80
"1","5242-Norwich-St,-Hilliard,-OH-43026","5242 Norwich St, Hilliard, OH 43026","5242 Norwich St",NA,"Hilliard","OH","43026","Franklin",40.0338,-83.1568,"Single Family",NA,3,1,1256,16117,1957,"Inactive",1850,"2023-12-11T00:00:00.000Z","2024-01-10T00:00:00.000Z",30
"1","5644-Aristocrat-Dr,-Hilliard,-OH-43026","5644 Aristocrat Dr, Hilliard, OH 43026","5644 Aristocrat Dr",NA,"Hilliard","OH","43026","Franklin",40.0474,-83.1693,"Townhouse",NA,3,2.5,1984,NA,2023,"Inactive",2595,"2023-12-22T00:00:00.000Z","2024-01-10T00:00:00.000Z",19
"1","3437-Fishinger-Mill-Dr,-Unit-3437,-Hilliard,-OH-43026","3437 Fishinger Mill Dr, Unit 3437, Hilliard, OH 43026","3437 Fishinger Mill Dr","Unit 3437","Hilliard","OH","43026","Franklin",40.0235,-83.1113,"Condo",NA,2,2,1152,NA,NA,"Inactive",1250,"2023-01-28T00:00:00.000Z","2024-01-09T00:00:00.000Z",346
"1","1992-Dry-Wash-Rd,-Hilliard,-OH-43026","1992 Dry Wash Rd, Hilliard, OH 43026","1992 Dry Wash Rd",NA,"Hilliard","OH","43026","Franklin",39.992,-83.1614,"Single Family",NA,3,2.5,1264,NA,NA,"Inactive",1925,"2022-10-18T00:00:00.000Z","2023-12-20T00:00:00.000Z",428
"1","6173-Acacia-Dr,-Hilliard,-OH-43026","6173 Acacia Dr, Hilliard, OH 43026","6173 Acacia Dr",NA,"Hilliard","OH","43026","Franklin",40.0477,-83.1834,"Single Family",NA,4,2.5,2568,11761,2007,"Inactive",2600,"2023-10-30T00:00:00.000Z","2023-12-20T00:00:00.000Z",51
"1","2233-Gosforth-Ln,-Hilliard,-OH-43026","2233 Gosforth Ln, Hilliard, OH 43026","2233 Gosforth Ln",NA,"Hilliard","OH","43026","Franklin",39.9969,-83.1628,"Single Family",NA,3,2,NA,NA,1992,"Inactive",1495,"2023-09-22T00:00:00.000Z","2023-12-16T00:00:00.000Z",85
"1","5125-Bigelow-Dr,-Hilliard,-OH-43026","5125 Bigelow Dr, Hilliard, OH 43026","5125 Bigelow Dr",NA,"Hilliard","OH","43026","Franklin",40.0224,-83.152,"Single Family",NA,3,2,1200,NA,NA,"Inactive",2100,"2023-06-18T00:00:00.000Z","2023-12-15T00:00:00.000Z",180
"1","5950-Galleon-Ct,-Hilliard,-OH-43026","5950 Galleon Ct, Hilliard, OH 43026","5950 Galleon Ct",NA,"Hilliard","OH","43026","Franklin",39.9843,-83.1628,"Single Family",NA,3,1.5,1221,NA,NA,"Inactive",2095,"2023-11-22T00:00:00.000Z","2023-12-12T00:00:00.000Z",20
"1","4557-Huckleberry-Ct,-Hilliard,-OH-43026","4557 Huckleberry Ct, Hilliard, OH 43026","4557 Huckleberry Ct",NA,"Hilliard","OH","43026","Franklin",40.0452,-83.1496,"Single Family",NA,4,2.5,1672,7405,1990,"Inactive",2550,"2023-10-18T00:00:00.000Z","2023-12-09T00:00:00.000Z",52
"1","3977-Linda-Rd,-Hilliard,-OH-43026","3977 Linda Rd, Hilliard, OH 43026","3977 Linda Rd",NA,"Hilliard","OH","43026","Franklin",40.0332,-83.151,"Single Family",NA,3,2,1662,NA,NA,"Inactive",2325,"2023-11-29T00:00:00.000Z","2023-12-07T00:00:00.000Z",8
"1","1992-Dry-Wash-Rd,-Columbus,-OH-43026","1992 Dry Wash Rd, Columbus, OH 43026","1992 Dry Wash Rd",NA,"Columbus","OH","43026","Franklin",39.992,-83.1614,"Single Family",NA,3,2.5,1264,NA,NA,"Inactive",1925,"2022-10-19T00:00:00.000Z","2023-12-06T00:00:00.000Z",413
"1","5200-Citrus-Dr,-Hilliard,-OH-43026","5200 Citrus Dr, Hilliard, OH 43026","5200 Citrus Dr",NA,"Hilliard","OH","43026","Franklin",40.0145,-83.1498,"Single Family",NA,3,2.5,1184,7405,1989,"Inactive",2150,"2023-11-02T00:00:00.000Z","2023-11-30T00:00:00.000Z",28
"1","5185-Singleton-Dr,-Unit-5185,-Hilliard,-OH-43026","5185 Singleton Dr, Unit 5185, Hilliard, OH 43026","5185 Singleton Dr","Unit 5185","Hilliard","OH","43026","Franklin",40.0094,-83.1468,"Condo",NA,2,2,998,NA,NA,"Inactive",1590,"2023-08-26T00:00:00.000Z","2023-11-21T00:00:00.000Z",87
"1","2252-Salbuck-Ave,-Hilliard,-OH-43026","2252 Salbuck Ave, Hilliard, OH 43026","2252 Salbuck Ave",NA,"Hilliard","OH","43026","Franklin",39.9964,-83.1422,"Single Family",NA,3,2,NA,NA,1998,"Inactive",1695,"2021-08-30T00:22:51.061Z","2023-11-16T00:00:00.000Z",808
"1","5577-Eagle-River-Dr,-Hilliard,-OH-43026","5577 Eagle River Dr, Hilliard, OH 43026","5577 Eagle River Dr",NA,"Hilliard","OH","43026","Franklin",40.0655,-83.1732,"Single Family",NA,3,1.5,1197,NA,NA,"Inactive",1695,"2022-07-12T00:00:00.000Z","2023-11-12T00:00:00.000Z",488
"1","5822-Annmary-Rd,-Hilliard,-OH-43026","5822 Annmary Rd, Hilliard, OH 43026","5822 Annmary Rd",NA,"Hilliard","OH","43026","Franklin",39.9909,-83.1641,"Single Family",NA,3,2,NA,NA,2005,"Inactive",1695,"2020-07-17T06:31:25.056Z","2023-11-11T00:00:00.000Z",1212
