"zip","id","formattedAddress","addressLine1","addressLine2","city","state","zipCode","county","latitude","longitude","propertyType","listingType","bedrooms","bathrooms","squareFootage","lotSize","yearBuilt","hoa.fee","status","price","listedDate","removedDate","daysOnMarket"
"1","Davidson-Rd,-Hilliard,-OH-43026","Davidson Rd, Hilliard, OH 43026","Davidson Rd",NA,"Hilliard","OH","43026","Franklin",40.0484,-83.1396,"Land","Standard",NA,NA,NA,1679674,NA,NA,"Active",8488000,"2017-11-02T00:00:00.000Z","list()",2863
"1","Hickory-Chase-Way,-Hilliard,-OH-43026","Hickory Chase Way, Hilliard, OH 43026","Hickory Chase Way",NA,"Hilliard","OH","43026","Franklin",40.0475,-83.1374,"Land","Standard",NA,NA,NA,149411,NA,NA,"Active",395000,"2024-03-05T00:00:00.000Z","list()",548
"1","Hayden-Run-Rd,-Lot-5,-Hilliard,-OH-43026","Hayden Run Rd, Lot 5, Hilliard, OH 43026","Hayden Run Rd","Lot 5","Hilliard","OH","43026","Franklin",40.0461,-83.2404,"Land","Standard",NA,NA,NA,422096,NA,NA,"Active",700000,"2024-09-10T00:00:00.000Z","list()",359
"1","Feder-Rd,-Hilliard,-OH-43026","Feder Rd, Hilliard, OH 43026","Feder Rd",NA,"Hilliard","OH","43026","Franklin",39.9728,-83.1981,"Land","Standard",NA,NA,NA,459994,NA,NA,"Active",480000,"2024-12-23T00:00:00.000Z","list()",255
"1","3578-Braidwood-Dr,-Hilliard,-OH-43026","3578 Braidwood Dr, Hilliard, OH 43026","3578 Braidwood Dr",NA,"Hilliard","OH","43026","Franklin",40.0476,-83.1131,"Single Family","Standard",3,2.5,1953,11761,1955,NA,"Active",423800,"2025-01-31T00:00:00.000Z","list()",216
"1","8871-Patterson-Rd,-Hilliard,-OH-43026","8871 Patterson Rd, Hilliard, OH 43026","8871 Patterson Rd",NA,"Hilliard","OH","43026","Franklin",39.9991,-83.2432,"Single Family","Standard",4,3,2300,915196,1987,NA,"Active",1300000,"2025-03-08T00:00:00.000Z","list()",180
"1","2573-Sycamore-Trce,-Hilliard,-OH-43026","2573 Sycamore Trce, Hilliard, OH 43026","2573 Sycamore Trce",NA,"Hilliard","OH","43026","Franklin",40.0017,-83.1915,"Single Family","Standard",6,5.5,6719,22216,2005,NA,"Active",1399999,"2025-03-25T00:00:00.000Z","list()",163
"1","6891-Woodedge-Ln,-Hilliard,-OH-43026","6891 Woodedge Ln, Hilliard, OH 43026","6891 Woodedge Ln",NA,"Hilliard","OH","43026","Franklin",40.0041,-83.1949,"Single Family","New Construction",6,5.5,6719,32234,2025,NA,"Active",1599000,"2025-03-24T00:00:00.000Z","list()",164
"1","6899-Woodedge-Ln,-Hilliard,-OH-43026","6899 Woodedge Ln, Hilliard, OH 43026","6899 Woodedge Ln",NA,"Hilliard","OH","43026","Franklin",40.0041,-83.1944,"Single Family","New Construction",6,5.5,6719,21780,2025,NA,"Active",1499000,"2025-03-24T00:00:00.000Z","list()",164
"1","6756-Lakeside-Pl,-Hilliard,-OH-43026","6756 Lakeside Pl, Hilliard, OH 43026","6756 Lakeside Pl",NA,"Hilliard","OH","43026","Franklin",40.0042,-83.192,"Single Family","Standard",6,5.5,6719,17424,2025,NA,"Active",1349999,"2025-03-25T00:00:00.000Z","list()",163
"1","3821-Aviary-Loop,-Hilliard,-OH-43026","3821 Aviary Loop, Hilliard, OH 43026","3821 Aviary Loop",NA,"Hilliard","OH","43026","Franklin",40.026,-83.2027,"Single Family","Standard",5,3,3168,18295,2023,7,"Active",713000,"2025-04-11T00:00:00.000Z","list()",146
"1","3318-Darbyshire-Dr,-Hilliard,-OH-43026","3318 Darbyshire Dr, Hilliard, OH 43026","3318 Darbyshire Dr",NA,"Hilliard","OH","43026","Franklin",40.0457,-83.1077,"Single Family","Standard",5,2.5,2284,19166,1959,NA,"Active",424900,"2025-04-18T00:00:00.000Z","list()",139
"1","2263-Amity-Rd,-Hilliard,-OH-43026","2263 Amity Rd, Hilliard, OH 43026","2263 Amity Rd",NA,"Hilliard","OH","43026","Franklin",39.9936,-83.2473,"Single Family","Standard",2,1.5,1232,108900,1895,NA,"Active",495000,"2025-04-24T00:00:00.000Z","list()",133
"1","6741-Cat-Singer-Cir-N,-Hilliard,-OH-43026","6741 Cat Singer Cir N, Hilliard, OH 43026","6741 Cat Singer Cir N",NA,"Hilliard","OH","43026","Franklin",40.0513,-83.1981,"Single Family","Standard",3,2,1840,6534,2021,122,"Active",440000,"2025-04-30T00:00:00.000Z","list()",127
"1","5961-Hayden-Run-Rd,-Hilliard,-OH-43026","5961 Hayden Run Rd, Hilliard, OH 43026","5961 Hayden Run Rd",NA,"Hilliard","OH","43026","Franklin",40.0544,-83.1626,"Single Family","Standard",4,2.5,2152,34412,1987,NA,"Active",574900,"2025-05-05T00:00:00.000Z","list()",122
"1","2012-Mirtillo-Dr,-Lot-335,-Hilliard,-OH-43026","2012 Mirtillo Dr, Lot 335, Hilliard, OH 43026","2012 Mirtillo Dr","Lot 335","Hilliard","OH","43026","Franklin",39.9918,-83.1766,"Single Family","New Construction",4,2.5,3008,6098,2025,95,"Active",574900,"2025-05-05T00:00:00.000Z","list()",122
"1","6320-Anguria-Dr,-Lot-245,-Hilliard,-OH-43026","6320 Anguria Dr, Lot 245, Hilliard, OH 43026","6320 Anguria Dr","Lot 245","Hilliard","OH","43026","Franklin",39.9916,-83.1781,"Single Family","New Construction",4,2.5,2453,6098,2025,95,"Active",549900,"2025-05-05T00:00:00.000Z","list()",122
"1","6600-Davis-Rd,-Hilliard,-OH-43026","6600 Davis Rd, Hilliard, OH 43026","6600 Davis Rd",NA,"Hilliard","OH","43026","Franklin",40.0299,-83.188,"Single Family","Standard",4,2.5,2960,47045,1968,NA,"Active",565000,"2025-05-05T00:00:00.000Z","list()",122
"1","6344-Zuccaro-Dr,-Lot-136,-Hilliard,-OH-43026","6344 Zuccaro Dr, Lot 136, Hilliard, OH 43026","6344 Zuccaro Dr","Lot 136","Hilliard","OH","43026","Franklin",39.9879,-83.178,"Single Family","New Construction",3,3,2784,6098,2022,95,"Active",589900,"2025-05-06T00:00:00.000Z","list()",121
"1","6580-Davis-Rd,-Hilliard,-OH-43026","6580 Davis Rd, Hilliard, OH 43026","6580 Davis Rd",NA,"Hilliard","OH","43026","Franklin",40.03,-83.1872,"Single Family","Standard",3,3,2040,41818,1976,NA,"Active",479000,"2025-05-14T00:00:00.000Z","list()",113
"1","8430-Patterson-Rd,-Hilliard,-OH-43026","8430 Patterson Rd, Hilliard, OH 43026","8430 Patterson Rd",NA,"Hilliard","OH","43026","Franklin",40.0072,-83.2342,"Single Family","Standard",3,2.5,2762,272686,1963,NA,"Active",700000,"2025-05-28T00:00:00.000Z","list()",99
"1","4409-Gary-Way,-Hilliard,-OH-43026","4409 Gary Way, Hilliard, OH 43026","4409 Gary Way",NA,"Hilliard","OH","43026","Franklin",40.0407,-83.1758,"Single Family","Standard",3,2,2097,10890,2002,27,"Active",505000,"2025-05-22T00:00:00.000Z","list()",105
"1","2733-Sycamore-Trce,-Hilliard,-OH-43026","2733 Sycamore Trce, Hilliard, OH 43026","2733 Sycamore Trce",NA,"Hilliard","OH","43026","Franklin",40.0035,-83.1903,"Single Family","Standard",6,5.5,5299,12632,2024,29,"Active",999000,"2025-05-23T00:00:00.000Z","list()",104
"1","6223-Hayden-Run-Rd,-Hilliard,-OH-43026","6223 Hayden Run Rd, Hilliard, OH 43026","6223 Hayden Run Rd",NA,"Hilliard","OH","43026","Franklin",40.0568,-83.1728,"Land","Standard",NA,NA,NA,80586,NA,NA,"Active",999900,"2025-05-21T00:00:00.000Z","list()",106
"1","2643-Westrock-Dr,-Hilliard,-OH-43026","2643 Westrock Dr, Hilliard, OH 43026","2643 Westrock Dr",NA,"Hilliard","OH","43026","Franklin",40.0048,-83.1743,"Single Family","Standard",4,2.5,2481,7405,2000,6,"Active",420000,"2025-05-28T00:00:00.000Z","list()",99
"1","4502-Bens-Ct,-Unit-31,-Hilliard,-OH-43026","4502 Bens Ct, Unit 31, Hilliard, OH 43026","4502 Bens Ct","Unit 31","Hilliard","OH","43026","Franklin",40.0425,-83.1832,"Condo","Standard",2,2.5,2261,2178,2013,450,"Active",405000,"2025-06-03T00:00:00.000Z","list()",93
"1","4209-Avery-Rd,-Hilliard,-OH-43026","4209 Avery Rd, Hilliard, OH 43026","4209 Avery Rd",NA,"Hilliard","OH","43026","Franklin",40.0377,-83.1568,"Single Family","Standard",3,1,1186,10454,1952,NA,"Active",289900,"2025-05-30T00:00:00.000Z","list()",97
"1","4854-Piedmont-Dr,-Hilliard,-OH-43026","4854 Piedmont Dr, Hilliard, OH 43026","4854 Piedmont Dr",NA,"Hilliard","OH","43026","Franklin",40.05,-83.1703,"Single Family","Standard",3,3,3067,6098,2022,268,"Active",725000,"2025-05-31T00:00:00.000Z","list()",96
"1","5608-Maple-Dell-Ct,-Hilliard,-OH-43026","5608 Maple Dell Ct, Hilliard, OH 43026","5608 Maple Dell Ct",NA,"Hilliard","OH","43026","Franklin",40.0419,-83.1689,"Single Family","Standard",4,2.5,2654,12632,2009,25,"Active",549900,"2025-06-06T00:00:00.000Z","list()",90
"1","1993-Schrive-Dr,-Hilliard,-OH-43026","1993 Schrive Dr, Hilliard, OH 43026","1993 Schrive Dr",NA,"Hilliard","OH","43026","Franklin",39.9919,-83.1639,"Single Family","Standard",4,2.5,2042,7841,2002,20,"Active",390000,"2025-06-10T00:00:00.000Z","list()",86
"1","5062-Stoneybrook-Blvd,-Unit-3F,-Hilliard,-OH-43026","5062 Stoneybrook Blvd, Unit 3F, Hilliard, OH 43026","5062 Stoneybrook Blvd","Unit 3F","Hilliard","OH","43026","Franklin",40.0172,-83.1469,"Condo","Standard",3,1.5,1031,436,1989,342,"Active",240000,"2025-06-11T00:00:00.000Z","list()",85
"1","5690-Kilbury-Ln,-Unit-120D,-Hilliard,-OH-43026","5690 Kilbury Ln, Unit 120D, Hilliard, OH 43026","5690 Kilbury Ln","Unit 120D","Hilliard","OH","43026","Franklin",39.9864,-83.1557,"Condo","Standard",2,1.5,832,436,1994,250,"Active",210000,"2025-06-13T00:00:00.000Z","list()",83
"1","4809-King-Albert-Dr,-Unit-1A,-Hilliard,-OH-43026","4809 King Albert Dr, Unit 1A, Hilliard, OH 43026","4809 King Albert Dr","Unit 1A","Hilliard","OH","43026","Franklin",40.0499,-83.1596,"Condo","Standard",3,2.5,1644,871,1989,220,"Active",225000,"2025-06-13T00:00:00.000Z","list()",83
"1","3984-Hill-Park-Rd,-Hilliard,-OH-43026","3984 Hill Park Rd, Hilliard, OH 43026","3984 Hill Park Rd",NA,"Hilliard","OH","43026","Franklin",40.0319,-83.1743,"Condo","Standard",2,2.5,1364,871,2003,280,"Active",294900,"2025-06-12T00:00:00.000Z","list()",84
"1","3956-Darby-Park-Rd,-Hilliard,-OH-43026","3956 Darby Park Rd, Hilliard, OH 43026","3956 Darby Park Rd",NA,"Hilliard","OH","43026","Franklin",40.0317,-83.1737,"Condo","Standard",3,2.5,1777,871,2003,280,"Active",299999,"2025-06-14T00:00:00.000Z","list()",82
"1","4860-Britton-Farms-Dr,-Hilliard,-OH-43026","4860 Britton Farms Dr, Hilliard, OH 43026","4860 Britton Farms Dr",NA,"Hilliard","OH","43026","Franklin",40.0519,-83.1426,"Single Family","Standard",3,2.5,2650,11326,1998,8,"Active",535000,"2025-06-16T00:00:00.000Z","list()",80
"1","4830-Stoneybrook-Blvd,-Unit-28E,-Hilliard,-OH-43026","4830 Stoneybrook Blvd, Unit 28E, Hilliard, OH 43026","4830 Stoneybrook Blvd","Unit 28E","Hilliard","OH","43026","Franklin",40.0175,-83.1415,"Condo","Standard",2,1.5,832,436,1989,313,"Active",175000,"2025-06-18T00:00:00.000Z","list()",78
"1","6724-Cat-Singer-Cir-S,-Hilliard,-OH-43026","6724 Cat Singer Cir S, Hilliard, OH 43026","6724 Cat Singer Cir S",NA,"Hilliard","OH","43026","Franklin",40.051,-83.1977,"Single Family","Standard",3,2,1862,6534,2019,122,"Active",429000,"2025-06-19T00:00:00.000Z","list()",77
"1","4200-Bowmansroot-Ct,-Hilliard,-OH-43026","4200 Bowmansroot Ct, Hilliard, OH 43026","4200 Bowmansroot Ct",NA,"Hilliard","OH","43026","Franklin",40.0403,-83.1081,"Single Family","Standard",4,2.5,2630,9583,1988,5,"Active",509900,"2025-06-20T00:00:00.000Z","list()",76
"1","4388-Knickel-Dr,-Hilliard,-OH-43026","4388 Knickel Dr, Hilliard, OH 43026","4388 Knickel Dr",NA,"Hilliard","OH","43026","Franklin",40.0189,-83.1307,"Single Family","Standard",4,2.5,2048,8276,1993,NA,"Active",464900,"2025-06-25T00:00:00.000Z","list()",71
"1","2657-Amberwick-Pl,-Hilliard,-OH-43026","2657 Amberwick Pl, Hilliard, OH 43026","2657 Amberwick Pl",NA,"Hilliard","OH","43026","Franklin",40.0054,-83.1652,"Single Family","Standard",3,1.5,1385,9583,1991,NA,"Active",384200,"2025-06-26T00:00:00.000Z","list()",70
"1","2755-Rustling-Oak-Blvd,-Hilliard,-OH-43026","2755 Rustling Oak Blvd, Hilliard, OH 43026","2755 Rustling Oak Blvd",NA,"Hilliard","OH","43026","Franklin",40.0076,-83.1595,"Single Family","Standard",4,2.5,2204,9583,1994,NA,"Active",444900,"2025-06-27T00:00:00.000Z","list()",69
"1","6736-Brookview-Pl,-Hilliard,-OH-43026","6736 Brookview Pl, Hilliard, OH 43026","6736 Brookview Pl",NA,"Hilliard","OH","43026","Franklin",40.0072,-83.1928,"Single Family","New Construction",4,2.5,3114,12632,2025,NA,"Active",749990,"2025-06-27T00:00:00.000Z","list()",69
"1","5256-Redmond-Ct,-Hilliard,-OH-43026","5256 Redmond Ct, Hilliard, OH 43026","5256 Redmond Ct",NA,"Hilliard","OH","43026","Franklin",40.0205,-83.1524,"Single Family","Standard",3,1.5,1160,10890,1992,NA,"Active",325000,"2025-07-01T00:00:00.000Z","list()",65
"1","5289-Crescent-Dr,-Hilliard,-OH-43026","5289 Crescent Dr, Hilliard, OH 43026","5289 Crescent Dr",NA,"Hilliard","OH","43026","Franklin",40.043,-83.1605,"Single Family","Standard",3,1,960,8712,1957,NA,"Active",259000,"2025-07-01T00:00:00.000Z","list()",65
"1","5630-Valencia-Park-Blvd,-Unit-20C,-Hilliard,-OH-43026","5630 Valencia Park Blvd, Unit 20C, Hilliard, OH 43026","5630 Valencia Park Blvd","Unit 20C","Hilliard","OH","43026","Franklin",39.9922,-83.1559,"Condo","Standard",2,2,1279,436,1992,322,"Active",229999,"2025-07-02T00:00:00.000Z","list()",64
"1","6009-Coventry-Bend-Dr,-Hilliard,-OH-43026","6009 Coventry Bend Dr, Hilliard, OH 43026","6009 Coventry Bend Dr",NA,"Hilliard","OH","43026","Franklin",40.0365,-83.1771,"Condo","Standard",3,2.5,1893,1742,2003,355,"Active",365000,"2025-07-02T00:00:00.000Z","list()",64
"1","4462-Kabarda-Way,-Hilliard,-OH-43026","4462 Kabarda Way, Hilliard, OH 43026","4462 Kabarda Way",NA,"Hilliard","OH","43026","Franklin",40.0403,-83.2008,"Single Family","New Construction",4,2.5,2457,6534,2025,50,"Active",588500,"2025-07-02T00:00:00.000Z","list()",64
"1","1756-Zucchina-Dr,-Hilliard,-OH-43026","1756 Zucchina Dr, Hilliard, OH 43026","1756 Zucchina Dr",NA,"Hilliard","OH","43026","Franklin",39.9866,-83.1732,"Single Family","Standard",3,3,2784,6534,2024,190,"Active",569900,"2025-07-02T00:00:00.000Z","list()",64
"1","5983-Cape-Coral-Ln,-Hilliard,-OH-43026","5983 Cape Coral Ln, Hilliard, OH 43026","5983 Cape Coral Ln",NA,"Hilliard","OH","43026","Franklin",39.9884,-83.1643,"Single Family","Standard",3,2.5,1280,7405,1989,NA,"Active",377200,"2025-07-04T00:00:00.000Z","list()",62
"1","2948-Bohlen-Dr,-Hilliard,-OH-43026","2948 Bohlen Dr, Hilliard, OH 43026","2948 Bohlen Dr",NA,"Hilliard","OH","43026","Franklin",40.0114,-83.1612,"Single Family","Standard",4,2.5,2317,8276,2001,NA,"Active",484900,"2025-07-10T00:00:00.000Z","list()",56
"1","5605-Brickstone-Pl,-Hilliard,-OH-43026","5605 Brickstone Pl, Hilliard, OH 43026","5605 Brickstone Pl",NA,"Hilliard","OH","43026","Franklin",40.0235,-83.1647,"Condo","Standard",2,2,1269,2178,1995,410,"Active",349000,"2025-07-09T00:00:00.000Z","list()",57
"1","2477-Crystal-Springs-Dr,-Hilliard,-OH-43026","2477 Crystal Springs Dr, Hilliard, OH 43026","2477 Crystal Springs Dr",NA,"Hilliard","OH","43026","Franklin",40.0021,-83.148,"Condo","Standard",2,2,986,1742,1997,361,"Active",249500,"2025-07-10T00:00:00.000Z","list()",56
"1","3409-Eastwoodlands-Trl,-Hilliard,-OH-43026","3409 Eastwoodlands Trl, Hilliard, OH 43026","3409 Eastwoodlands Trl",NA,"Hilliard","OH","43026","Franklin",40.0237,-83.112,"Condo","Standard",3,2.5,1268,871,1988,470,"Active",296900,"2025-07-11T00:00:00.000Z","list()",55
"1","5851-Dena-Dr,-Hilliard,-OH-43026","5851 Dena Dr, Hilliard, OH 43026","5851 Dena Dr",NA,"Hilliard","OH","43026","Franklin",40.014,-83.1704,"Single Family","Standard",4,2.5,2052,9583,1999,NA,"Active",430000,"2025-07-11T00:00:00.000Z","list()",55
"1","5792-Nike-Dr,-Hilliard,-OH-43026","5792 Nike Dr, Hilliard, OH 43026","5792 Nike Dr",NA,"Hilliard","OH","43026","Franklin",39.9986,-83.1591,"Single Family","Standard",3,2.5,1896,8276,1992,NA,"Active",374900,"2025-07-13T00:00:00.000Z","list()",53
"1","3566-Fishinger-Mill-Dr,-Hilliard,-OH-43026","3566 Fishinger Mill Dr, Hilliard, OH 43026","3566 Fishinger Mill Dr",NA,"Hilliard","OH","43026","Franklin",40.0247,-83.1116,"Condo","Standard",2,2,1188,436,1988,312,"Active",245000,"2025-07-15T00:00:00.000Z","list()",51
"1","5052-Bressler-Dr,-Hilliard,-OH-43026","5052 Bressler Dr, Hilliard, OH 43026","5052 Bressler Dr",NA,"Hilliard","OH","43026","Franklin",40.0062,-83.144,"Single Family","Standard",3,2.5,1400,5663,1994,NA,"Active",349900,"2025-07-16T00:00:00.000Z","list()",50
"1","4825-Hillcrest-St-S,-Hilliard,-OH-43026","4825 Hillcrest St S, Hilliard, OH 43026","4825 Hillcrest St S",NA,"Hilliard","OH","43026","Franklin",40.0284,-83.1448,"Single Family","Standard",3,2,1694,8712,1959,NA,"Active",323900,"2025-07-17T00:00:00.000Z","list()",49
"1","3574-Fishinger-Mill-Dr,-Hilliard,-OH-43026","3574 Fishinger Mill Dr, Hilliard, OH 43026","3574 Fishinger Mill Dr",NA,"Hilliard","OH","43026","Franklin",40.0246,-83.1118,"Condo","Standard",1,1,912,871,1988,237,"Active",182900,"2025-07-18T00:00:00.000Z","list()",48
"1","4806-Yankee-Rd,-Hilliard,-OH-43026","4806 Yankee Rd, Hilliard, OH 43026","4806 Yankee Rd",NA,"Hilliard","OH","43026","Franklin",40.0485,-83.1951,"Single Family","Standard",4,3.5,3620,13939,2021,26,"Active",674000,"2025-07-21T00:00:00.000Z","list()",45
"1","3398-Crandon-St,-Hilliard,-OH-43026","3398 Crandon St, Hilliard, OH 43026","3398 Crandon St",NA,"Hilliard","OH","43026","Franklin",40.0223,-83.1314,"Single Family","Standard",3,1.5,1404,10019,1973,NA,"Active",315000,"2025-07-20T00:00:00.000Z","list()",46
"1","5992-Kitchen-Ct,-Hilliard,-OH-43026","5992 Kitchen Ct, Hilliard, OH 43026","5992 Kitchen Ct",NA,"Hilliard","OH","43026","Franklin",40.0448,-83.179,"Single Family","Standard",4,2.5,2648,11326,2002,27,"Active",549900,"2025-07-19T00:00:00.000Z","list()",47
"1","6073-Baumeister-Dr,-Hilliard,-OH-43026","6073 Baumeister Dr, Hilliard, OH 43026","6073 Baumeister Dr",NA,"Hilliard","OH","43026","Franklin",40.0439,-83.1814,"Single Family","Standard",4,3.5,3054,10454,2013,18,"Active",584900,"2025-07-22T00:00:00.000Z","list()",44
"1","4123-Wayne-St,-Hilliard,-OH-43026","4123 Wayne St, Hilliard, OH 43026","4123 Wayne St",NA,"Hilliard","OH","43026","Franklin",40.036,-83.1595,"Single Family","Standard",4,2.5,2420,7405,2021,NA,"Active",625000,"2025-07-22T00:00:00.000Z","list()",44
"1","4615-Edgewyn-Ave,-Hilliard,-OH-43026","4615 Edgewyn Ave, Hilliard, OH 43026","4615 Edgewyn Ave",NA,"Hilliard","OH","43026","Franklin",40.0258,-83.1386,"Single Family","Standard",3,1,900,8276,1959,NA,"Active",250000,"2025-07-22T00:00:00.000Z","list()",44
"1","3450-Fishinger-Mill-Road-Dr,-Hilliard,-OH-43026","3450 Fishinger Mill Road Dr, Hilliard, OH 43026","3450 Fishinger Mill Road Dr",NA,"Hilliard","OH","43026","Franklin",40.0242,-83.1101,"Condo","Standard",2,2,1152,436,1988,301,"Active",230000,"2025-07-23T00:00:00.000Z","list()",43
"1","1652-Bennigan-Dr,-Unit-175A,-Hilliard,-OH-43026","1652 Bennigan Dr, Unit 175A, Hilliard, OH 43026","1652 Bennigan Dr","Unit 175A","Hilliard","OH","43026","Franklin",39.9836,-83.1561,"Condo","Standard",2,1.5,832,436,1996,250,"Active",214900,"2025-07-23T00:00:00.000Z","list()",43
"1","4955-Baycroft-Dr,-Hilliard,-OH-43026","4955 Baycroft Dr, Hilliard, OH 43026","4955 Baycroft Dr",NA,"Hilliard","OH","43026","Franklin",40.0004,-83.14,"Single Family","Standard",3,1.5,1752,6534,1997,5,"Active",374900,"2025-07-23T00:00:00.000Z","list()",43
"1","3668-Ridgewood-Dr,-Hilliard,-OH-43026","3668 Ridgewood Dr, Hilliard, OH 43026","3668 Ridgewood Dr",NA,"Hilliard","OH","43026","Franklin",40.0452,-83.1152,"Single Family","Standard",5,2.5,2424,12632,1961,NA,"Active",480000,"2025-07-23T00:00:00.000Z","list()",43
"1","5488-Whispering-Oak-Blvd,-Hilliard,-OH-43026","5488 Whispering Oak Blvd, Hilliard, OH 43026","5488 Whispering Oak Blvd",NA,"Hilliard","OH","43026","Franklin",40.008,-83.1582,"Single Family","Standard",4,2.5,2011,7841,1994,NA,"Active",420000,"2025-07-24T00:00:00.000Z","list()",42
"1","4894-Stoneybrook-Blvd,-Unit-20E,-Hilliard,-OH-43026","4894 Stoneybrook Blvd, Unit 20E, Hilliard, OH 43026","4894 Stoneybrook Blvd","Unit 20E","Hilliard","OH","43026","Franklin",40.0174,-83.1429,"Condo","Standard",2,1.5,832,436,1989,313,"Active",189900,"2025-07-24T00:00:00.000Z","list()",42
"1","1774-Zucchina-Dr,-Hilliard,-OH-43026","1774 Zucchina Dr, Hilliard, OH 43026","1774 Zucchina Dr",NA,"Hilliard","OH","43026","Franklin",39.987,-83.1734,"Single Family","Standard",2,2,1662,6534,2023,190,"Active",435000,"2025-07-25T00:00:00.000Z","list()",41
"1","3419-River-Landings-Blvd,-Hilliard,-OH-43026","3419 River Landings Blvd, Hilliard, OH 43026","3419 River Landings Blvd",NA,"Hilliard","OH","43026","Franklin",40.0498,-83.1096,"Single Family","Standard",4,2.5,2695,9148,1992,NA,"Active",544900,"2025-07-25T00:00:00.000Z","list()",41
"1","3705-Hilliard-Station-Rd,-Hilliard,-OH-43026","3705 Hilliard Station Rd, Hilliard, OH 43026","3705 Hilliard Station Rd",NA,"Hilliard","OH","43026","Franklin",40.0215,-83.1118,"Condo","Standard",2,2.5,1272,871,1988,403,"Active",285000,"2025-07-25T00:00:00.000Z","list()",41
"1","2185-Yagger-Bay-Dr,-Hilliard,-OH-43026","2185 Yagger Bay Dr, Hilliard, OH 43026","2185 Yagger Bay Dr",NA,"Hilliard","OH","43026","Franklin",39.9965,-83.1459,"Single Family","Standard",3,2,2178,13939,1998,5,"Active",375000,"2025-07-25T00:00:00.000Z","list()",41
"1","5642-Keystone-Ln,-Hilliard,-OH-43026","5642 Keystone Ln, Hilliard, OH 43026","5642 Keystone Ln",NA,"Hilliard","OH","43026","Franklin",40.053,-83.1688,"Single Family","Standard",2,2,2245,7405,2023,268,"Active",699900,"2025-07-25T00:00:00.000Z","list()",41
"1","1566-Galleon-Blvd,-Hilliard,-OH-43026","1566 Galleon Blvd, Hilliard, OH 43026","1566 Galleon Blvd",NA,"Hilliard","OH","43026","Franklin",39.9831,-83.162,"Single Family","Standard",3,2,1160,7405,1988,NA,"Active",309900,"2025-07-27T00:00:00.000Z","list()",39
"1","4967-Carroll-Ct,-Hilliard,-OH-43026","4967 Carroll Ct, Hilliard, OH 43026","4967 Carroll Ct",NA,"Hilliard","OH","43026","Franklin",40.0276,-83.1484,"Single Family","Standard",3,1,1285,6970,1960,NA,"Active",299800,"2025-07-29T00:00:00.000Z","list()",37
"1","3705-Schirtzinger-Rd,-Hilliard,-OH-43026","3705 Schirtzinger Rd, Hilliard, OH 43026","3705 Schirtzinger Rd",NA,"Hilliard","OH","43026","Franklin",40.0413,-83.1097,"Single Family","Standard",4,2.5,1990,21780,1959,NA,"Active",464900,"2025-07-29T00:00:00.000Z","list()",37
"1","5779-Nike-Dr,-Hilliard,-OH-43026","5779 Nike Dr, Hilliard, OH 43026","5779 Nike Dr",NA,"Hilliard","OH","43026","Franklin",39.9981,-83.159,"Single Family","Standard",3,1.5,1440,8712,1992,NA,"Active",330000,"2025-07-30T00:00:00.000Z","list()",36
"1","5223-Bressler-Dr,-Hilliard,-OH-43026","5223 Bressler Dr, Hilliard, OH 43026","5223 Bressler Dr",NA,"Hilliard","OH","43026","Franklin",40.0053,-83.1482,"Single Family","Standard",3,3,1680,10019,1990,NA,"Active",399900,"2025-07-30T00:00:00.000Z","list()",36
"1","7525-Hayden-Run-Rd,-Hilliard,-OH-43026","7525 Hayden Run Rd, Hilliard, OH 43026","7525 Hayden Run Rd",NA,"Hilliard","OH","43026","Franklin",40.0588,-83.2042,"Single Family","Standard",4,3,3580,108900,2007,NA,"Active",1300000,"2025-07-30T00:00:00.000Z","list()",36
"1","4727-Clubpark-Dr,-Hilliard,-OH-43026","4727 Clubpark Dr, Hilliard, OH 43026","4727 Clubpark Dr",NA,"Hilliard","OH","43026","Franklin",40.046,-83.1436,"Condo","Standard",2,3,2572,2178,2008,385,"Active",414900,"2025-07-31T00:00:00.000Z","list()",35
"1","6056-Glade-Run-Rd,-Hilliard,-OH-43026","6056 Glade Run Rd, Hilliard, OH 43026","6056 Glade Run Rd",NA,"Hilliard","OH","43026","Franklin",40.0061,-83.1748,"Single Family","Standard",4,2.5,2300,9583,2015,29,"Active",489900,"2025-07-30T00:00:00.000Z","list()",36
"1","5455-Gillette-Ave,-Hilliard,-OH-43026","5455 Gillette Ave, Hilliard, OH 43026","5455 Gillette Ave",NA,"Hilliard","OH","43026","Franklin",40.018,-83.1573,"Single Family","Standard",3,1.5,1411,7405,1991,NA,"Active",345000,"2025-07-31T00:00:00.000Z","list()",35
"1","5317-Gillette-Ave,-Hilliard,-OH-43026","5317 Gillette Ave, Hilliard, OH 43026","5317 Gillette Ave",NA,"Hilliard","OH","43026","Franklin",40.0186,-83.1538,"Single Family","Standard",3,2.5,1880,8276,1991,NA,"Active",374900,"2025-07-31T00:00:00.000Z","list()",35
"1","1807-Messner-Dr,-Unit-65D,-Hilliard,-OH-43026","1807 Messner Dr, Unit 65D, Hilliard, OH 43026","1807 Messner Dr","Unit 65D","Hilliard","OH","43026","Franklin",39.9873,-83.1579,"Condo","Standard",2,2,1181,436,1994,322,"Active",233000,"2025-08-01T00:00:00.000Z","list()",34
"1","4356-Hansen-Dr,-Hilliard,-OH-43026","4356 Hansen Dr, Hilliard, OH 43026","4356 Hansen Dr",NA,"Hilliard","OH","43026","Franklin",40.0434,-83.1218,"Single Family","Standard",4,3,2096,12197,1967,NA,"Active",469900,"2025-07-31T00:00:00.000Z","list()",35
"1","2144-Jeffey-Dr,-Hilliard,-OH-43026","2144 Jeffey Dr, Hilliard, OH 43026","2144 Jeffey Dr",NA,"Hilliard","OH","43026","Franklin",39.9953,-83.1601,"Single Family","Standard",3,1,999,7405,1985,NA,"Active",274900,"2025-07-31T00:00:00.000Z","list()",35
"1","3483-Fairway-Commons-Dr,-Hilliard,-OH-43026","3483 Fairway Commons Dr, Hilliard, OH 43026","3483 Fairway Commons Dr",NA,"Hilliard","OH","43026","Franklin",40.0212,-83.1844,"Single Family","Standard",4,3.5,3110,9583,1998,33,"Active",500000,"2025-08-01T00:00:00.000Z","list()",34
"1","5293-Williamsburg-Cir,-Hilliard,-OH-43026","5293 Williamsburg Cir, Hilliard, OH 43026","5293 Williamsburg Cir",NA,"Hilliard","OH","43026","Franklin",40.0219,-83.1556,"Single Family","Standard",3,1.5,1417,9583,1971,NA,"Active",369000,"2025-08-01T00:00:00.000Z","list()",34
"1","3797-Mill-Stream-Dr,-Unit-17,-Hilliard,-OH-43026","3797 Mill Stream Dr, Unit 17, Hilliard, OH 43026","3797 Mill Stream Dr","Unit 17","Hilliard","OH","43026","Franklin",40.0215,-83.1153,"Condo","Standard",2,2,1008,1307,1991,323,"Active",292000,"2025-08-02T00:00:00.000Z","list()",33
"1","5037-Langcroft-Dr,-Hilliard,-OH-43026","5037 Langcroft Dr, Hilliard, OH 43026","5037 Langcroft Dr",NA,"Hilliard","OH","43026","Franklin",40.0002,-83.1465,"Single Family","Standard",3,2.5,2110,16553,1999,5,"Active",399900,"2025-08-02T00:00:00.000Z","list()",33
"1","7062-Scarlet-Oak-Dr,-Hilliard,-OH-43026","7062 Scarlet Oak Dr, Hilliard, OH 43026","7062 Scarlet Oak Dr",NA,"Hilliard","OH","43026","Franklin",40.0184,-83.2037,"Single Family","Standard",3,3.5,3412,11326,2020,17,"Active",674900,"2025-08-05T00:00:00.000Z","list()",30
"1","3799-Confluence-Dr,-Hilliard,-OH-43026","3799 Confluence Dr, Hilliard, OH 43026","3799 Confluence Dr",NA,"Hilliard","OH","43026","Franklin",40.0474,-83.1197,"Single Family","Standard",3,2.5,2339,9583,1994,NA,"Active",515000,"2025-08-02T00:00:00.000Z","list()",33
"1","5029-Claymill-Dr,-Hilliard,-OH-43026","5029 Claymill Dr, Hilliard, OH 43026","5029 Claymill Dr",NA,"Hilliard","OH","43026","Franklin",40.0397,-83.1527,"Single Family","Standard",4,2.5,2501,9583,1996,NA,"Active",525000,"2025-08-03T00:00:00.000Z","list()",32
"1","Jeannette-Rd,-Hilliard,-OH-43026","Jeannette Rd, Hilliard, OH 43026","Jeannette Rd",NA,"Hilliard","OH","43026","Franklin",40.0255,-83.1397,"Land","Standard",NA,NA,NA,9148,NA,NA,"Active",100000,"2025-08-05T00:00:00.000Z","list()",30
"1","4857-Stoneybrook-Blvd,-Hilliard,-OH-43026","4857 Stoneybrook Blvd, Hilliard, OH 43026","4857 Stoneybrook Blvd",NA,"Hilliard","OH","43026","Franklin",40.0171,-83.1419,"Condo","Standard",2,1.5,1248,NA,1989,313,"Active",194900,"2025-08-04T00:00:00.000Z","list()",31
"1","3627-Heywood-Dr,-Hilliard,-OH-43026","3627 Heywood Dr, Hilliard, OH 43026","3627 Heywood Dr",NA,"Hilliard","OH","43026","Franklin",40.0256,-83.1592,"Single Family","Standard",3,2.5,2010,7841,1958,NA,"Active",349900,"2025-08-05T00:00:00.000Z","list()",30
"1","5703-Palos-Ln,-Hilliard,-OH-43026","5703 Palos Ln, Hilliard, OH 43026","5703 Palos Ln",NA,"Hilliard","OH","43026","Franklin",39.9846,-83.1567,"Condo","Standard",2,2,1200,436,1996,203,"Active",209900,"2025-08-06T00:00:00.000Z","list()",29
"1","5380-Taylor-Lane-Ave,-Hilliard,-OH-43026","5380 Taylor Lane Ave, Hilliard, OH 43026","5380 Taylor Lane Ave",NA,"Hilliard","OH","43026","Franklin",40.0441,-83.1628,"Single Family","Standard",3,2,1344,7405,1983,NA,"Active",329000,"2025-08-05T00:00:00.000Z","list()",30
"1","4460-Paxton-Dr-S,-Hilliard,-OH-43026","4460 Paxton Dr S, Hilliard, OH 43026","4460 Paxton Dr S",NA,"Hilliard","OH","43026","Franklin",40.022,-83.1335,"Single Family","Standard",3,1.5,1404,7405,1971,NA,"Active",285000,"2025-08-06T00:00:00.000Z","list()",29
"1","4455-Earman-Dr,-Hilliard,-OH-43026","4455 Earman Dr, Hilliard, OH 43026","4455 Earman Dr",NA,"Hilliard","OH","43026","Franklin",40.0173,-83.1325,"Single Family","Standard",3,2,2100,14375,1993,NA,"Active",369900,"2025-08-06T00:00:00.000Z","list()",29
"1","3959-Hill-Park-Rd,-Hilliard,-OH-43026","3959 Hill Park Rd, Hilliard, OH 43026","3959 Hill Park Rd",NA,"Hilliard","OH","43026","Franklin",40.0311,-83.1746,"Condo","Standard",3,2.5,1864,NA,2003,280,"Active",329900,"2025-08-07T00:00:00.000Z","list()",28
"1","5459-Red-Wynne-Ln,-Hilliard,-OH-43026","5459 Red Wynne Ln, Hilliard, OH 43026","5459 Red Wynne Ln",NA,"Hilliard","OH","43026","Franklin",40.0078,-83.1574,"Single Family","Standard",4,2.5,2282,9583,1993,NA,"Active",444900,"2025-08-07T00:00:00.000Z","list()",28
"1","4687-Shineystone-Way,-Hilliard,-OH-43026","4687 Shineystone Way, Hilliard, OH 43026","4687 Shineystone Way",NA,"Hilliard","OH","43026","Franklin",40.0495,-83.122,"Single Family","Standard",4,3.5,2277,7841,1992,NA,"Active",454900,"2025-08-07T00:00:00.000Z","list()",28
"1","3867-Braidwood-Dr,-Hilliard,-OH-43026","3867 Braidwood Dr, Hilliard, OH 43026","3867 Braidwood Dr",NA,"Hilliard","OH","43026","Franklin",40.046,-83.1185,"Single Family","Standard",4,3,1991,10454,1955,NA,"Active",415000,"2025-08-08T00:00:00.000Z","list()",27
"1","5709-Nike-Dr,-Hilliard,-OH-43026","5709 Nike Dr, Hilliard, OH 43026","5709 Nike Dr",NA,"Hilliard","OH","43026","Franklin",39.997,-83.1575,"Single Family","Standard",3,2.5,1770,7405,1990,NA,"Active",349500,"2025-08-08T00:00:00.000Z","list()",27
"1","3622-Fishinger-Mill-Dr,-Unit-3622,-Hilliard,-OH-43026","3622 Fishinger Mill Dr, Unit 3622, Hilliard, OH 43026","3622 Fishinger Mill Dr","Unit 3622","Hilliard","OH","43026","Franklin",40.0254,-83.1126,"Condo","Standard",2,2,1189,1307,1988,312,"Active",245000,"2025-08-09T00:00:00.000Z","list()",26
"1","5709-Ceylon-Dr,-Hilliard,-OH-43026","5709 Ceylon Dr, Hilliard, OH 43026","5709 Ceylon Dr",NA,"Hilliard","OH","43026","Franklin",39.9831,-83.1571,"Condo","Standard",2,1,832,436,1997,253,"Active",179900,"2025-08-08T00:00:00.000Z","list()",27
"1","5343-Bonner-Dr,-Hilliard,-OH-43026","5343 Bonner Dr, Hilliard, OH 43026","5343 Bonner Dr",NA,"Hilliard","OH","43026","Franklin",40.0168,-83.1544,"Single Family","Standard",3,2.5,2086,7405,1991,NA,"Active",369900,"2025-08-10T00:00:00.000Z","list()",25
"1","5191-Goldfield-Dr,-Hilliard,-OH-43026","5191 Goldfield Dr, Hilliard, OH 43026","5191 Goldfield Dr",NA,"Hilliard","OH","43026","Franklin",40.0193,-83.1507,"Single Family","Standard",3,2.5,1630,7405,1991,NA,"Active",345000,"2025-08-11T00:00:00.000Z","list()",24
"1","4933-Travers-Ct,-Hilliard,-OH-43026","4933 Travers Ct, Hilliard, OH 43026","4933 Travers Ct",NA,"Hilliard","OH","43026","Franklin",40.0262,-83.1466,"Single Family","Standard",3,1,975,6534,1960,NA,"Active",299000,"2025-08-11T00:00:00.000Z","list()",24
"1","6177-Woodsview-Way,-Hilliard,-OH-43026","6177 Woodsview Way, Hilliard, OH 43026","6177 Woodsview Way",NA,"Hilliard","OH","43026","Franklin",40.0404,-83.184,"Single Family","Standard",3,2.5,2316,11761,2005,31,"Active",499900,"2025-08-11T00:00:00.000Z","list()",24
"1","5828-Annmary-Rd,-Hilliard,-OH-43026","5828 Annmary Rd, Hilliard, OH 43026","5828 Annmary Rd",NA,"Hilliard","OH","43026","Franklin",39.9909,-83.1642,"Single Family","Standard",3,2.5,1729,4792,2005,20,"Active",349900,"2025-08-11T00:00:00.000Z","list()",24
"1","5935-Pondview-Ct,-Hilliard,-OH-43026","5935 Pondview Ct, Hilliard, OH 43026","5935 Pondview Ct",NA,"Hilliard","OH","43026","Franklin",40.0399,-83.1774,"Single Family","Standard",4,3.5,3472,11326,2004,NA,"Active",604999,"2025-08-12T00:00:00.000Z","list()",23
"1","3427-Eastwoodlands-Trl,-Hilliard,-OH-43026","3427 Eastwoodlands Trl, Hilliard, OH 43026","3427 Eastwoodlands Trl",NA,"Hilliard","OH","43026","Franklin",40.024,-83.1118,"Condo","Standard",3,2.5,1268,871,1988,420,"Active",295900,"2025-08-12T00:00:00.000Z","list()",23
"1","5222-Bonner-Dr,-Hilliard,-OH-43026","5222 Bonner Dr, Hilliard, OH 43026","5222 Bonner Dr",NA,"Hilliard","OH","43026","Franklin",40.0184,-83.1517,"Single Family","Standard",3,2.5,1586,7405,1991,NA,"Active",375000,"2025-08-12T00:00:00.000Z","list()",23
"1","6169-Baumeister-Dr,-Hilliard,-OH-43026","6169 Baumeister Dr, Hilliard, OH 43026","6169 Baumeister Dr",NA,"Hilliard","OH","43026","Franklin",40.0437,-83.1834,"Single Family","Standard",4,2.5,3130,10454,2014,19,"Active",579900,"2025-08-12T00:00:00.000Z","list()",23
"1","2505-Punderson-Dr,-Hilliard,-OH-43026","2505 Punderson Dr, Hilliard, OH 43026","2505 Punderson Dr",NA,"Hilliard","OH","43026","Franklin",40.0018,-83.1656,"Single Family","Standard",4,2.5,2334,10019,1996,NA,"Active",459000,"2025-08-12T00:00:00.000Z","list()",23
"1","2484-Meadow-Glen-Ln,-Hilliard,-OH-43026","2484 Meadow Glen Ln, Hilliard, OH 43026","2484 Meadow Glen Ln",NA,"Hilliard","OH","43026","Franklin",40.0021,-83.1399,"Condo","Standard",3,3,1633,1742,2001,380,"Active",299900,"2025-08-12T00:00:00.000Z","list()",23
"1","1896-Dry-Wash-Rd,-Hilliard,-OH-43026","1896 Dry Wash Rd, Hilliard, OH 43026","1896 Dry Wash Rd",NA,"Hilliard","OH","43026","Franklin",39.99,-83.1615,"Single Family","Standard",3,2.5,1701,5663,2003,23,"Active",355500,"2025-08-13T00:00:00.000Z","list()",22
"1","5318-Whispering-Oak-Blvd,-Hilliard,-OH-43026","5318 Whispering Oak Blvd, Hilliard, OH 43026","5318 Whispering Oak Blvd",NA,"Hilliard","OH","43026","Franklin",40.0088,-83.154,"Single Family","Standard",4,2.5,2155,12632,1995,NA,"Active",435000,"2025-08-13T00:00:00.000Z","list()",22
"1","4567-Bolon-Ave,-Hilliard,-OH-43026","4567 Bolon Ave, Hilliard, OH 43026","4567 Bolon Ave",NA,"Hilliard","OH","43026","Franklin",40.0237,-83.1373,"Single Family","Standard",3,1,1388,7841,1959,NA,"Active",299900,"2025-08-14T00:00:00.000Z","list()",21
"1","5994-Farmcreek-Ct,-Hilliard,-OH-43026","5994 Farmcreek Ct, Hilliard, OH 43026","5994 Farmcreek Ct",NA,"Hilliard","OH","43026","Franklin",40.0439,-83.1792,"Single Family","Standard",4,2.5,3560,11326,2002,27,"Active",575000,"2025-08-14T00:00:00.000Z","list()",21
"1","5481-Oakwynne-Ave,-Hilliard,-OH-43026","5481 Oakwynne Ave, Hilliard, OH 43026","5481 Oakwynne Ave",NA,"Hilliard","OH","43026","Franklin",40.0061,-83.1577,"Single Family","Standard",4,2.5,2812,11761,1995,NA,"Active",475000,"2025-08-14T00:00:00.000Z","list()",21
"1","5661-Maple-Dell-Ct,-Hilliard,-OH-43026","5661 Maple Dell Ct, Hilliard, OH 43026","5661 Maple Dell Ct",NA,"Hilliard","OH","43026","Franklin",40.0415,-83.1705,"Single Family","Standard",4,3.5,4347,28314,2001,25,"Active",615000,"2025-08-14T00:00:00.000Z","list()",21
"1","2230-Hackney-Ct,-Hilliard,-OH-43026","2230 Hackney Ct, Hilliard, OH 43026","2230 Hackney Ct",NA,"Hilliard","OH","43026","Franklin",39.9966,-83.1606,"Single Family","Standard",4,2.5,2096,17860,1992,NA,"Active",394900,"2025-08-14T00:00:00.000Z","list()",21
"1","4014-Darby-Park-Rd,-Hilliard,-OH-43026","4014 Darby Park Rd, Hilliard, OH 43026","4014 Darby Park Rd",NA,"Hilliard","OH","43026","Franklin",40.0327,-83.1738,"Condo","Standard",3,2.5,1762,871,2001,275,"Active",339900,"2025-08-15T00:00:00.000Z","list()",20
"1","5644-Newington-Dr,-Hilliard,-OH-43026","5644 Newington Dr, Hilliard, OH 43026","5644 Newington Dr",NA,"Hilliard","OH","43026","Franklin",40.0186,-83.1616,"Single Family","Standard",3,2.5,2386,9148,1997,NA,"Active",500000,"2025-08-15T00:00:00.000Z","list()",20
"1","3526-Fishinger-Mill-Dr,-Hilliard,-OH-43026","3526 Fishinger Mill Dr, Hilliard, OH 43026","3526 Fishinger Mill Dr",NA,"Hilliard","OH","43026","Franklin",40.0248,-83.1108,"Condo","Standard",1,1,912,871,1988,287,"Active",195000,"2025-08-15T00:00:00.000Z","list()",20
"1","5594-Bluegrass-Way,-Hilliard,-OH-43026","5594 Bluegrass Way, Hilliard, OH 43026","5594 Bluegrass Way",NA,"Hilliard","OH","43026","Franklin",39.9939,-83.1554,"Single Family","Standard",3,2,1444,7405,1977,NA,"Active",304900,"2025-08-16T00:00:00.000Z","list()",19
"1","5458-Gillette-Ave,-Hilliard,-OH-43026","5458 Gillette Ave, Hilliard, OH 43026","5458 Gillette Ave",NA,"Hilliard","OH","43026","Franklin",40.0183,-83.1578,"Single Family","Standard",3,2.5,1570,7405,1992,NA,"Active",409900,"2025-08-17T00:00:00.000Z","list()",18
"1","4664-Cutwater-Ln,-Hilliard,-OH-43026","4664 Cutwater Ln, Hilliard, OH 43026","4664 Cutwater Ln",NA,"Hilliard","OH","43026","Franklin",40.0496,-83.1141,"Single Family","Standard",4,2.5,2644,10019,1990,15,"Active",554900,"2025-08-17T00:00:00.000Z","list()",18
"1","5633-Maple-Dell-Ct,-Hilliard,-OH-43026","5633 Maple Dell Ct, Hilliard, OH 43026","5633 Maple Dell Ct",NA,"Hilliard","OH","43026","Franklin",40.0412,-83.1696,"Single Family","Standard",4,2.5,2416,17424,2001,25,"Active",559000,"2025-08-18T00:00:00.000Z","list()",17
"1","3281-Darby-Glen-Blvd,-Hilliard,-OH-43026","3281 Darby Glen Blvd, Hilliard, OH 43026","3281 Darby Glen Blvd",NA,"Hilliard","OH","43026","Franklin",40.0203,-83.1341,"Single Family","Standard",3,2.5,1490,10890,1995,NA,"Active",374900,"2025-08-19T00:00:00.000Z","list()",16
"1","2603-Westrock-Dr,-Hilliard,-OH-43026","2603 Westrock Dr, Hilliard, OH 43026","2603 Westrock Dr",NA,"Hilliard","OH","43026","Franklin",40.0039,-83.1743,"Single Family","Standard",4,2.5,1900,9583,1996,6,"Active",410000,"2025-08-20T00:00:00.000Z","list()",15
"1","2755-Shelton-Cir,-Hilliard,-OH-43026","2755 Shelton Cir, Hilliard, OH 43026","2755 Shelton Cir",NA,"Hilliard","OH","43026","Franklin",40.0086,-83.1437,"Single Family","Standard",3,2,1600,8712,1991,NA,"Active",363900,"2025-08-20T00:00:00.000Z","list()",15
"1","4894-Wallington-Dr,-Hilliard,-OH-43026","4894 Wallington Dr, Hilliard, OH 43026","4894 Wallington Dr",NA,"Hilliard","OH","43026","Franklin",40.0514,-83.163,"Single Family","Standard",3,2.5,1694,7405,1987,NA,"Active",348000,"2025-08-19T00:00:00.000Z","list()",16
"1","2759-Lyndley-Ct,-Hilliard,-OH-43026","2759 Lyndley Ct, Hilliard, OH 43026","2759 Lyndley Ct",NA,"Hilliard","OH","43026","Franklin",40.0087,-83.1448,"Single Family","Standard",3,2.5,1595,6534,1990,NA,"Active",360000,"2025-08-19T00:00:00.000Z","list()",16
"1","5600-Valencia-Park-Blvd,-Hilliard,-OH-43026","5600 Valencia Park Blvd, Hilliard, OH 43026","5600 Valencia Park Blvd",NA,"Hilliard","OH","43026","Franklin",39.9921,-83.1551,"Condo","Standard",2,2.5,1408,871,1992,332,"Active",265000,"2025-08-19T00:00:00.000Z","list()",16
"1","4410-Shire-Creek-Ct,-Hilliard,-OH-43026","4410 Shire Creek Ct, Hilliard, OH 43026","4410 Shire Creek Ct",NA,"Hilliard","OH","43026","Franklin",40.0612,-83.1098,"Single Family","Standard",3,4.5,4013,30928,1978,NA,"Active",829000,"2025-08-20T00:00:00.000Z","list()",15
"1","4528-Nonius-Dr,-Hilliard,-OH-43026","4528 Nonius Dr, Hilliard, OH 43026","4528 Nonius Dr",NA,"Hilliard","OH","43026","Franklin",40.0359,-83.1966,"Single Family","New Construction",3,3,2560,NA,2025,NA,"Active",588535,"2025-08-20T00:00:00.000Z","list()",15
"1","4522-Nonius-Dr,-Hilliard,-OH-43026","4522 Nonius Dr, Hilliard, OH 43026","4522 Nonius Dr",NA,"Hilliard","OH","43026","Franklin",40.0359,-83.1966,"Single Family","New Construction",2,2,1628,NA,2025,NA,"Active",479550,"2025-08-20T00:00:00.000Z","list()",15
"1","4512-Nonius-Dr,-Hilliard,-OH-43026","4512 Nonius Dr, Hilliard, OH 43026","4512 Nonius Dr",NA,"Hilliard","OH","43026","Franklin",40.0359,-83.1966,"Single Family","New Construction",2,2,1637,NA,2025,NA,"Active",485655,"2025-08-20T00:00:00.000Z","list()",15
"1","5553-Valencia-Park-Blvd,-Unit-6A,-Hilliard,-OH-43026","5553 Valencia Park Blvd, Unit 6A, Hilliard, OH 43026","5553 Valencia Park Blvd","Unit 6A","Hilliard","OH","43026","Franklin",39.9918,-83.1539,"Condo","Standard",2,1.5,1024,436,1992,322,"Active",232000,"2025-08-20T00:00:00.000Z","list()",15
"1","4960-Silver-Bow-Dr,-Hilliard,-OH-43026","4960 Silver Bow Dr, Hilliard, OH 43026","4960 Silver Bow Dr",NA,"Hilliard","OH","43026","Franklin",40.016,-83.1437,"Single Family","Standard",4,2.5,2185,7405,1990,NA,"Active",404900,"2025-08-21T00:00:00.000Z","list()",14
"1","3606-Stonecross-Ln,-Hilliard,-OH-43026","3606 Stonecross Ln, Hilliard, OH 43026","3606 Stonecross Ln",NA,"Hilliard","OH","43026","Franklin",40.026,-83.1438,"Single Family","Standard",3,2.5,1488,9583,1996,NA,"Active",370000,"2025-08-20T00:00:00.000Z","list()",15
"1","3395-Heritage-Oaks-Dr,-Hilliard,-OH-43026","3395 Heritage Oaks Dr, Hilliard, OH 43026","3395 Heritage Oaks Dr",NA,"Hilliard","OH","43026","Franklin",40.0196,-83.1727,"Single Family","Standard",4,4,5000,16988,1998,40,"Active",749900,"2025-08-21T00:00:00.000Z","list()",14
"1","6954-Corsican-Loop-N,-Hilliard,-OH-43026","6954 Corsican Loop N, Hilliard, OH 43026","6954 Corsican Loop N",NA,"Hilliard","OH","43026","Franklin",40.0359,-83.1966,"Single Family","New Construction",2,2,1789,NA,2026,NA,"Active",530453,"2025-08-21T00:00:00.000Z","list()",14
"1","6320-Anguria-Dr,-Hilliard,-OH-43026","6320 Anguria Dr, Hilliard, OH 43026","6320 Anguria Dr",NA,"Hilliard","OH","43026","Franklin",39.9917,-83.1781,"Single Family","New Construction",4,2.5,2453,NA,NA,NA,"Active",549900,"2025-08-22T00:00:00.000Z","list()",13
"1","6865-Losino-Ln,-Hilliard,-OH-43026","6865 Losino Ln, Hilliard, OH 43026","6865 Losino Ln",NA,"Hilliard","OH","43026","Franklin",40.0359,-83.1966,"Single Family","New Construction",4,2.5,2773,NA,2025,NA,"Active",611700,"2025-08-22T00:00:00.000Z","list()",13
"1","2007-Fragola-Dr,-Lot-334,-Hilliard,-OH-43026","2007 Fragola Dr, Lot 334, Hilliard, OH 43026","2007 Fragola Dr","Lot 334","Hilliard","OH","43026","Franklin",39.9918,-83.176,"Single Family","New Construction",4,3,2628,6098,2025,95,"Active",564900,"2025-08-21T00:00:00.000Z","list()",14
"1","2013-Fragola-Dr,-Lot-333,-Hilliard,-OH-43026","2013 Fragola Dr, Lot 333, Hilliard, OH 43026","2013 Fragola Dr","Lot 333","Hilliard","OH","43026","Franklin",39.9919,-83.176,"Single Family","New Construction",3,2.5,2453,6098,2025,95,"Active",534900,"2025-08-21T00:00:00.000Z","list()",14
"1","6960-Corsican-Loop-N,-Hilliard,-OH-43026","6960 Corsican Loop N, Hilliard, OH 43026","6960 Corsican Loop N",NA,"Hilliard","OH","43026","Franklin",40.0359,-83.1966,"Single Family","New Construction",2,2,1883,NA,2026,NA,"Active",551387,"2025-08-22T00:00:00.000Z","list()",13
"1","2007-Fragola-Dr,-Hilliard,-OH-43026","2007 Fragola Dr, Hilliard, OH 43026","2007 Fragola Dr",NA,"Hilliard","OH","43026","Franklin",39.9929,-83.1777,"Single Family","New Construction",4,3,2628,NA,NA,NA,"Active",564900,"2025-08-22T00:00:00.000Z","list()",13
"1","4500-Circle-Dr,-Hilliard,-OH-43026","4500 Circle Dr, Hilliard, OH 43026","4500 Circle Dr",NA,"Hilliard","OH","43026","Franklin",40.0426,-83.1616,"Single Family","Standard",3,1,960,7405,1956,NA,"Active",289900,"2025-08-22T00:00:00.000Z","list()",13
"1","3363-Eastwoodlands-Trl,-Hilliard,-OH-43026","3363 Eastwoodlands Trl, Hilliard, OH 43026","3363 Eastwoodlands Trl",NA,"Hilliard","OH","43026","Franklin",40.0228,-83.112,"Condo","Standard",3,2.5,1268,871,1988,420,"Active",289000,"2025-08-22T00:00:00.000Z","list()",13
"1","3642-E-Links-Cir,-Hilliard,-OH-43026","3642 E Links Cir, Hilliard, OH 43026","3642 E Links Cir",NA,"Hilliard","OH","43026","Franklin",40.0257,-83.1643,"Condo","Standard",2,2,1461,2178,1998,414,"Active",315000,"2025-08-22T00:00:00.000Z","list()",13
"1","2013-Fragola-Dr,-Hilliard,-OH-43026","2013 Fragola Dr, Hilliard, OH 43026","2013 Fragola Dr",NA,"Hilliard","OH","43026","Franklin",39.9929,-83.1777,"Single Family","New Construction",3,2.5,2453,NA,NA,NA,"Active",534900,"2025-08-23T00:00:00.000Z","list()",12
"1","4549-Corsican-Loop-E,-Hilliard,-OH-43026","4549 Corsican Loop E, Hilliard, OH 43026","4549 Corsican Loop E",NA,"Hilliard","OH","43026","Franklin",40.0359,-83.1966,"Single Family","New Construction",2,2,1992,NA,2025,NA,"Active",552910,"2025-08-23T00:00:00.000Z","list()",12
"1","4545-Corsican-Loop-E,-Hilliard,-OH-43026","4545 Corsican Loop E, Hilliard, OH 43026","4545 Corsican Loop E",NA,"Hilliard","OH","43026","Franklin",40.0359,-83.1966,"Single Family","New Construction",3,3,2198,NA,2025,NA,"Active",585840,"2025-08-23T00:00:00.000Z","list()",12
"1","4505-Nonius-Dr,-Hilliard,-OH-43026","4505 Nonius Dr, Hilliard, OH 43026","4505 Nonius Dr",NA,"Hilliard","OH","43026","Franklin",40.0359,-83.1966,"Single Family","New Construction",3,3,2198,NA,2026,NA,"Active",609910,"2025-08-23T00:00:00.000Z","list()",12
"1","1875-Ridgebury-Dr,-Unit-66D,-Hilliard,-OH-43026","1875 Ridgebury Dr, Unit 66D, Hilliard, OH 43026","1875 Ridgebury Dr","Unit 66D","Hilliard","OH","43026","Franklin",39.9892,-83.1585,"Condo","Standard",2,3,1452,871,1994,322,"Active",254500,"2025-08-23T00:00:00.000Z","list()",12
"1","4553-Coolbrook-Dr,-Hilliard,-OH-43026","4553 Coolbrook Dr, Hilliard, OH 43026","4553 Coolbrook Dr",NA,"Hilliard","OH","43026","Franklin",40.0484,-83.11,"Single Family","Standard",4,2.5,2056,9583,1990,10,"Active",524900,"2025-08-24T00:00:00.000Z","list()",11
"1","3255-Reed-Point-Dr,-Hilliard,-OH-43026","3255 Reed Point Dr, Hilliard, OH 43026","3255 Reed Point Dr",NA,"Hilliard","OH","43026","Franklin",40.0185,-83.1477,"Single Family","Standard",3,2.5,1542,10454,1992,NA,"Active",399999,"2025-08-24T00:00:00.000Z","list()",11
"1","4984-Britton-Farms-Dr,-Hilliard,-OH-43026","4984 Britton Farms Dr, Hilliard, OH 43026","4984 Britton Farms Dr",NA,"Hilliard","OH","43026","Franklin",40.0539,-83.1413,"Single Family","Standard",4,2.5,2688,10019,1995,8,"Active",549900,"2025-08-24T00:00:00.000Z","list()",11
"1","6218-Lampton-Pond-Dr,-Hilliard,-OH-43026","6218 Lampton Pond Dr, Hilliard, OH 43026","6218 Lampton Pond Dr",NA,"Hilliard","OH","43026","Franklin",40.0201,-83.1835,"Single Family","Standard",5,3.5,4164,18295,2004,31,"Active",680000,"2025-08-25T00:00:00.000Z","list()",10
"1","3311-Leap-Rd,-Hilliard,-OH-43026","3311 Leap Rd, Hilliard, OH 43026","3311 Leap Rd",NA,"Hilliard","OH","43026","Franklin",40.0199,-83.1381,"Single Family","Standard",3,1,1735,54014,1938,NA,"Active",335000,"2025-08-25T00:00:00.000Z","list()",10
"1","6787-Ardennes-Loop-N,-Hilliard,-OH-43026","6787 Ardennes Loop N, Hilliard, OH 43026","6787 Ardennes Loop N",NA,"Hilliard","OH","43026","Franklin",40.0359,-83.1966,"Single Family","New Construction",5,3.5,2871,NA,2025,NA,"Active",646560,"2025-08-27T00:00:00.000Z","list()",8
"1","4535-Corsican-Loop-E,-Hilliard,-OH-43026","4535 Corsican Loop E, Hilliard, OH 43026","4535 Corsican Loop E",NA,"Hilliard","OH","43026","Franklin",40.0359,-83.1966,"Single Family","New Construction",2,2,1883,NA,2026,NA,"Active",522735,"2025-08-28T00:00:00.000Z","list()",7
"1","3639-Hilliard-Station-Rd,-Hilliard,-OH-43026","3639 Hilliard Station Rd, Hilliard, OH 43026","3639 Hilliard Station Rd",NA,"Hilliard","OH","43026","Franklin",40.022,-83.11,"Condo","Standard",1,1,912,436,1988,287,"Active",195000,"2025-08-26T00:00:00.000Z","list()",9
"1","2456-Highlandtown-Dr,-Hilliard,-OH-43026","2456 Highlandtown Dr, Hilliard, OH 43026","2456 Highlandtown Dr",NA,"Hilliard","OH","43026","Franklin",40.0011,-83.1628,"Single Family","Standard",3,2.5,2452,7841,1995,NA,"Active",400000,"2025-08-26T00:00:00.000Z","list()",9
"1","5349-Dexter-Ave,-Hilliard,-OH-43026","5349 Dexter Ave, Hilliard, OH 43026","5349 Dexter Ave",NA,"Hilliard","OH","43026","Franklin",40.0376,-83.161,"Single Family","Standard",3,1,960,6970,1955,NA,"Active",285000,"2025-08-27T00:00:00.000Z","list()",8
"1","2657-Village-Pier-Ln,-Hilliard,-OH-43026","2657 Village Pier Ln, Hilliard, OH 43026","2657 Village Pier Ln",NA,"Hilliard","OH","43026","Franklin",40.0058,-83.156,"Condo","Standard",2,2.5,1508,NA,1997,265,"Active",285000,"2025-08-28T00:00:00.000Z","list()",7
"1","4862-Stoneybrook-Blvd,-Unit-24E,-Hilliard,-OH-43026","4862 Stoneybrook Blvd, Unit 24E, Hilliard, OH 43026","4862 Stoneybrook Blvd","Unit 24E","Hilliard","OH","43026","Franklin",40.0174,-83.1422,"Condo","Standard",2,2,1248,436,1989,313,"Active",179900,"2025-08-27T00:00:00.000Z","list()",8
"1","6956-Corsican-Loop-N,-Hilliard,-OH-43026","6956 Corsican Loop N, Hilliard, OH 43026","6956 Corsican Loop N",NA,"Hilliard","OH","43026","Franklin",40.0359,-83.1966,"Single Family","New Construction",2,2,2007,NA,2026,NA,"Active",562415,"2025-08-28T00:00:00.000Z","list()",7
"1","3653-Heywood-Dr,-Hilliard,-OH-43026","3653 Heywood Dr, Hilliard, OH 43026","3653 Heywood Dr",NA,"Hilliard","OH","43026","Franklin",40.0261,-83.1594,"Single Family","Standard",3,1.5,1008,7405,1956,NA,"Active",304999,"2025-08-27T00:00:00.000Z","list()",8
"1","4541-Corsican-Loop-E,-Hilliard,-OH-43026","4541 Corsican Loop E, Hilliard, OH 43026","4541 Corsican Loop E",NA,"Hilliard","OH","43026","Franklin",40.0359,-83.1966,"Single Family","New Construction",2,2,1883,NA,2026,NA,"Active",545265,"2025-08-28T00:00:00.000Z","list()",7
"1","4539-Corsican-Loop-E,-Hilliard,-OH-43026","4539 Corsican Loop E, Hilliard, OH 43026","4539 Corsican Loop E",NA,"Hilliard","OH","43026","Franklin",40.0359,-83.1966,"Single Family","New Construction",2,2,1661,NA,2026,NA,"Active",526845,"2025-08-28T00:00:00.000Z","list()",7
"1","5589-Fescue-Dr,-Hilliard,-OH-43026","5589 Fescue Dr, Hilliard, OH 43026","5589 Fescue Dr",NA,"Hilliard","OH","43026","Franklin",39.9952,-83.1556,"Single Family","Standard",3,1.5,1560,9148,1977,NA,"Active",350000,"2025-08-28T00:00:00.000Z","list()",7
"1","3828-Falls-Circle-Dr,-Unit-22,-Hilliard,-OH-43026","3828 Falls Circle Dr, Unit 22, Hilliard, OH 43026","3828 Falls Circle Dr","Unit 22","Hilliard","OH","43026","Franklin",40.022,-83.1163,"Single Family","Standard",3,2.5,1380,1742,1992,369,"Active",349900,"2025-08-28T00:00:00.000Z","list()",7
"1","5555-Valencia-Park-Blvd,-Unit-6B,-Hilliard,-OH-43026","5555 Valencia Park Blvd, Unit 6B, Hilliard, OH 43026","5555 Valencia Park Blvd","Unit 6B","Hilliard","OH","43026","Franklin",39.9918,-83.1539,"Condo","Standard",2,2,1350,436,1992,322,"Active",254900,"2025-08-28T00:00:00.000Z","list()",7
"1","3583-Darby-Knolls-Blvd,-Hilliard,-OH-43026","3583 Darby Knolls Blvd, Hilliard, OH 43026","3583 Darby Knolls Blvd",NA,"Hilliard","OH","43026","Franklin",40.0215,-83.2437,"Single Family","Standard",6,6.5,13752,217800,2005,NA,"Active",2699900,"2025-08-28T00:00:00.000Z","list()",7
"1","5706-Brook-Hollow-Dr,-Hilliard,-OH-43026","5706 Brook Hollow Dr, Hilliard, OH 43026","5706 Brook Hollow Dr",NA,"Hilliard","OH","43026","Franklin",40.0058,-83.1639,"Single Family","Standard",3,2.5,2050,7841,1992,NA,"Active",410000,"2025-08-29T00:00:00.000Z","list()",6
"1","5285-Redlands-Dr,-Hilliard,-OH-43026","5285 Redlands Dr, Hilliard, OH 43026","5285 Redlands Dr",NA,"Hilliard","OH","43026","Franklin",40.0121,-83.1514,"Single Family","Standard",4,2.5,2053,9583,1989,NA,"Active",380000,"2025-08-29T00:00:00.000Z","list()",6
"1","5589-E-Links-Blvd,-Unit-2,-Hilliard,-OH-43026","5589 E Links Blvd, Unit 2, Hilliard, OH 43026","5589 E Links Blvd","Unit 2","Hilliard","OH","43026","Franklin",40.0252,-83.1649,"Condo","Standard",2,2,1469,2178,1996,414,"Active",319900,"2025-08-29T00:00:00.000Z","list()",6
"1","9157-Scioto-Darby-Creek-Rd,-Hilliard,-OH-43026","9157 Scioto Darby Creek Rd, Hilliard, OH 43026","9157 Scioto Darby Creek Rd",NA,"Hilliard","OH","43026","Franklin",40.0384,-83.2394,"Single Family","Standard",3,2,1569,19166,1966,NA,"Active",385000,"2025-08-29T00:00:00.000Z","list()",6
"1","4537-Corsican-Loop-E,-Hilliard,-OH-43026","4537 Corsican Loop E, Hilliard, OH 43026","4537 Corsican Loop E",NA,"Hilliard","OH","43026","Franklin",40.0359,-83.1966,"Single Family","New Construction",2,2,1789,NA,2026,NA,"Active",534025,"2025-08-30T00:00:00.000Z","list()",5
"1","3473-Woodland-Dr,-Hilliard,-OH-43026","3473 Woodland Dr, Hilliard, OH 43026","3473 Woodland Dr",NA,"Hilliard","OH","43026","Franklin",40.0186,-83.2003,"Single Family","Standard",4,2.5,3346,10019,2017,17,"Active",714999,"2025-08-30T00:00:00.000Z","list()",5
"1","4547-Corsican-Loop-E,-Hilliard,-OH-43026","4547 Corsican Loop E, Hilliard, OH 43026","4547 Corsican Loop E",NA,"Hilliard","OH","43026","Franklin",40.0359,-83.1966,"Single Family","New Construction",2,2,1883,NA,2025,NA,"Active",540985,"2025-08-30T00:00:00.000Z","list()",5
"1","4543-Corsican-Loop-E,-Hilliard,-OH-43026","4543 Corsican Loop E, Hilliard, OH 43026","4543 Corsican Loop E",NA,"Hilliard","OH","43026","Franklin",40.0359,-83.1966,"Single Family","New Construction",3,3,2545,NA,2025,NA,"Active",590760,"2025-08-30T00:00:00.000Z","list()",5
"1","4554-Coolbrook-Dr,-Hilliard,-OH-43026","4554 Coolbrook Dr, Hilliard, OH 43026","4554 Coolbrook Dr",NA,"Hilliard","OH","43026","Franklin",40.0489,-83.1102,"Single Family","Standard",4,2.5,2679,11326,1990,10,"Active",579900,"2025-08-30T00:00:00.000Z","list()",5
"1","10253-Hayden-Run-Rd,-Hilliard,-OH-43026","10253 Hayden Run Rd, Hilliard, OH 43026","10253 Hayden Run Rd",NA,"Hilliard","OH","43026","Madison",40.0518,-83.2186,"Land","Standard",NA,NA,NA,8504219,1961,NA,"Active",8600000,"2025-02-21T00:00:00.000Z","list()",195
"1","4898-Davidson-Run-Dr,-Hilliard,-OH-43026","4898 Davidson Run Dr, Hilliard, OH 43026","4898 Davidson Run Dr",NA,"Hilliard","OH","43026","Franklin",40.0539,-83.1225,"Single Family","Standard",4,2.5,3344,8712,1995,25,"Active",500000,"2025-08-31T00:00:00.000Z","list()",4
"1","5277-Bressler-Dr,-Hilliard,-OH-43026","5277 Bressler Dr, Hilliard, OH 43026","5277 Bressler Dr",NA,"Hilliard","OH","43026","Franklin",40.0048,-83.1495,"Single Family","Standard",3,2.5,1950,6970,1990,NA,"Active",389900,"2025-08-31T00:00:00.000Z","list()",4
"1","2979-Casper-Ave,-Hilliard,-OH-43026","2979 Casper Ave, Hilliard, OH 43026","2979 Casper Ave",NA,"Hilliard","OH","43026","Franklin",40.0126,-83.1486,"Single Family","Standard",3,2.5,1542,7405,1989,NA,"Active",380000,"2025-08-31T00:00:00.000Z","list()",4
"1","4813-Diplomat-Way,-Hilliard,-OH-43026","4813 Diplomat Way, Hilliard, OH 43026","4813 Diplomat Way",NA,"Hilliard","OH","43026","Franklin",40.0494,-83.1684,"Single Family","New Construction",2,2,1760,NA,2025,NA,"Active",539135,"2025-09-01T00:00:00.000Z","list()",3
"1","6960-Gelderland-Dr,-Hilliard,-OH-43026","6960 Gelderland Dr, Hilliard, OH 43026","6960 Gelderland Dr",NA,"Hilliard","OH","43026","Franklin",40.0369,-83.2026,"Single Family","New Construction",4,3.5,2871,NA,2024,NA,"Active",731680,"2025-09-01T00:00:00.000Z","list()",3
"1","6958-Corsican-Loop-N,-Hilliard,-OH-43026","6958 Corsican Loop N, Hilliard, OH 43026","6958 Corsican Loop N",NA,"Hilliard","OH","43026","Franklin",40.0359,-83.1966,"Single Family","New Construction",2,2,1883,NA,2026,NA,"Active",542668,"2025-09-02T00:00:00.000Z","list()",2
"1","4744-Champion-Ln,-Hilliard,-OH-43026","4744 Champion Ln, Hilliard, OH 43026","4744 Champion Ln",NA,"Hilliard","OH","43026","Franklin",40.0481,-83.1678,"Single Family","New Construction",3,3,2826,NA,2025,NA,"Active",699285,"2025-09-02T00:00:00.000Z","list()",2
"1","5620-Aristocrat-Dr,-Hilliard,-OH-43026","5620 Aristocrat Dr, Hilliard, OH 43026","5620 Aristocrat Dr",NA,"Hilliard","OH","43026","Franklin",40.0474,-83.1686,"Single Family","New Construction",3,3,2586,NA,2025,NA,"Active",669765,"2025-09-02T00:00:00.000Z","list()",2
"1","4177-Greenbelt-Dr,-Hilliard,-OH-43026","4177 Greenbelt Dr, Hilliard, OH 43026","4177 Greenbelt Dr",NA,"Hilliard","OH","43026","Franklin",40.0359,-83.1754,"Single Family","Standard",3,2.5,2064,9583,2000,27,"Active",465000,"2025-09-02T00:00:00.000Z","list()",2
"1","2618-Copperwood-Rd,-Hilliard,-OH-43026","2618 Copperwood Rd, Hilliard, OH 43026","2618 Copperwood Rd",NA,"Hilliard","OH","43026","Franklin",40.0046,-83.1636,"Single Family","Standard",4,2.5,1872,7841,1991,NA,"Active",399999,"2025-09-02T00:00:00.000Z","list()",2
"1","6302-Heritage-Lakes-Dr,-Hilliard,-OH-43026","6302 Heritage Lakes Dr, Hilliard, OH 43026","6302 Heritage Lakes Dr",NA,"Hilliard","OH","43026","Franklin",40.0234,-83.1839,"Single Family","Standard",4,4,4043,18295,2006,40,"Active",839900,"2025-09-02T00:00:00.000Z","list()",2
"1","5681-Mango-Ln,-Unit-102D,-Hilliard,-OH-43026","5681 Mango Ln, Unit 102D, Hilliard, OH 43026","5681 Mango Ln","Unit 102D","Hilliard","OH","43026","Franklin",39.9901,-83.1566,"Condo","Standard",2,2.5,1350,436,1995,322,"Active",259000,"2025-09-03T00:00:00.000Z","list()",1
"1","2960-Bohlen-Dr,-Hilliard,-OH-43026","2960 Bohlen Dr, Hilliard, OH 43026","2960 Bohlen Dr",NA,"Hilliard","OH","43026","Franklin",40.0118,-83.161,"Single Family","Standard",5,4.5,3652,8276,2001,NA,"Active",545000,"2025-09-03T00:00:00.000Z","list()",1
"1","5641-Everbrook-Dr,-Unit-42D,-Hilliard,-OH-43026","5641 Everbrook Dr, Unit 42D, Hilliard, OH 43026","5641 Everbrook Dr","Unit 42D","Hilliard","OH","43026","Franklin",39.9909,-83.1566,"Condo","Standard",2,2.5,1216,436,1993,322,"Active",254400,"2025-07-04T00:00:00.000Z","list()",61
"1","2661-Brittany-Oaks-Blvd,-Hilliard,-OH-43026","2661 Brittany Oaks Blvd, Hilliard, OH 43026","2661 Brittany Oaks Blvd",NA,"Hilliard","OH","43026","Franklin",40.0053,-83.1681,"Condo","Standard",2,2,1005,1742,1994,300,"Active",239900,"2025-07-17T00:00:00.000Z","list()",48
"1","6264-Pinefield-Dr,-Hilliard,-OH-43026","6264 Pinefield Dr, Hilliard, OH 43026","6264 Pinefield Dr",NA,"Hilliard","OH","43026","Franklin",40.0106,-83.177,"Single Family","Standard",4,2.5,2084,9583,1998,6,"Active",419900,"2025-07-25T00:00:00.000Z","list()",40
"1","3015-Bohlen-Dr,-Hilliard,-OH-43026","3015 Bohlen Dr, Hilliard, OH 43026","3015 Bohlen Dr",NA,"Hilliard","OH","43026","Franklin",40.013,-83.1615,"Single Family","Standard",3,2,2012,8276,2003,NA,"Active",475000,"2025-08-13T00:00:00.000Z","list()",21
"1","4704-Carrington-Way,-Hilliard,-OH-43026","4704 Carrington Way, Hilliard, OH 43026","4704 Carrington Way",NA,"Hilliard","OH","43026","Franklin",40.0541,-83.1426,"Single Family","Standard",4,2.5,2571,13939,1995,7,"Active",550000,"2025-08-26T00:00:00.000Z","list()",8
"1","2010-Dry-Wash-Rd,-Hilliard,-OH-43026","2010 Dry Wash Rd, Hilliard, OH 43026","2010 Dry Wash Rd",NA,"Hilliard","OH","43026","Franklin",39.9923,-83.1614,"Single Family","Standard",3,2.5,1480,5663,2002,23,"Inactive",359900,"2025-07-22T00:00:00.000Z","2025-08-31T00:00:00.000Z",40
"1","6713-Brookview-Pl,-Hilliard,-OH-43026","6713 Brookview Pl, Hilliard, OH 43026","6713 Brookview Pl",NA,"Hilliard","OH","43026","Franklin",40.0072,-83.1928,"Single Family","New Construction",4,2,2859,17424,2025,NA,"Inactive",739990,"2025-08-20T00:00:00.000Z","2025-08-31T00:00:00.000Z",11
"1","8520-Carter-Rd,-Hilliard,-OH-43026","8520 Carter Rd, Hilliard, OH 43026","8520 Carter Rd",NA,"Hilliard","OH","43026","Franklin",40.0281,-83.2386,"Single Family","Standard",3,2.5,1868,22216,1971,NA,"Inactive",435000,"2025-07-24T00:00:00.000Z","2025-08-30T00:00:00.000Z",37
"1","4192-Maystar-Way,-Hilliard,-OH-43026","4192 Maystar Way, Hilliard, OH 43026","4192 Maystar Way",NA,"Hilliard","OH","43026","Franklin",40.04,-83.1148,"Single Family","Standard",4,2.5,2474,13068,1991,6,"Inactive",574900,"2025-08-07T00:00:00.000Z","2025-08-30T00:00:00.000Z",23
"1","5715-Nike-Dr,-Hilliard,-OH-43026","5715 Nike Dr, Hilliard, OH 43026","5715 Nike Dr",NA,"Hilliard","OH","43026","Franklin",39.9972,-83.1576,"Single Family","Standard",3,2.5,1515,7405,1990,NA,"Inactive",365000,"2025-07-17T00:00:00.000Z","2025-08-29T00:00:00.000Z",43
"1","5647-Embassy-Dr,-Hilliard,-OH-43026","5647 Embassy Dr, Hilliard, OH 43026","5647 Embassy Dr",NA,"Hilliard","OH","43026","Franklin",40.0479,-83.1691,"Single Family","New Construction",3,3,2155,NA,2025,NA,"Inactive",603720,"2025-08-24T00:00:00.000Z","2025-08-29T00:00:00.000Z",5
"1","1828-Pomodoro-Dr,-Lot-138,-Hilliard,-OH-43026","1828 Pomodoro Dr, Lot 138, Hilliard, OH 43026","1828 Pomodoro Dr","Lot 138","Hilliard","OH","43026","Franklin",39.988,-83.1784,"Single Family","New Construction",3,2.5,2453,8276,2022,95,"Inactive",559900,"2025-05-05T00:00:00.000Z","2025-08-28T00:00:00.000Z",115
"1","4600-Coolbrook-Dr,-Hilliard,-OH-43026","4600 Coolbrook Dr, Hilliard, OH 43026","4600 Coolbrook Dr",NA,"Hilliard","OH","43026","Franklin",40.0493,-83.1114,"Single Family","Standard",3,2.5,3268,9148,1990,10,"Inactive",549900,"2025-07-18T00:00:00.000Z","2025-08-28T00:00:00.000Z",41
"1","5400-Davidson-Rd,-Hilliard,-OH-43026","5400 Davidson Rd, Hilliard, OH 43026","5400 Davidson Rd",NA,"Hilliard","OH","43026","Franklin",40.0479,-83.1646,"Single Family","Standard",3,2.5,1850,7841,1986,NA,"Inactive",429900,"2025-07-24T00:00:00.000Z","2025-08-28T00:00:00.000Z",35
"1","4976-Harvest-Meadow-Rd,-Hilliard,-OH-43026","4976 Harvest Meadow Rd, Hilliard, OH 43026","4976 Harvest Meadow Rd",NA,"Hilliard","OH","43026","Franklin",40.0437,-83.1521,"Single Family","Standard",4,2.5,1707,7405,1988,NA,"Inactive",420000,"2025-07-25T00:00:00.000Z","2025-08-28T00:00:00.000Z",34
"1","4954-Abberton-Ct,-Hilliard,-OH-43026","4954 Abberton Ct, Hilliard, OH 43026","4954 Abberton Ct",NA,"Hilliard","OH","43026","Franklin",40.0527,-83.1643,"Single Family","Standard",4,2.5,2450,12197,1988,NA,"Inactive",435000,"2025-07-25T00:00:00.000Z","2025-08-28T00:00:00.000Z",34
"1","2032-Melone-Dr,-Lot-421,-Hilliard,-OH-43026","2032 Melone Dr, Lot 421, Hilliard, OH 43026","2032 Melone Dr","Lot 421","Hilliard","OH","43026","Franklin",39.9922,-83.1744,"Single Family","New Construction",4,2.5,3126,7405,2025,95,"Inactive",614900,"2025-05-05T00:00:00.000Z","2025-08-27T00:00:00.000Z",114
"1","1830-Zucchina-Dr,-Lot-204,-Hilliard,-OH-43026","1830 Zucchina Dr, Lot 204, Hilliard, OH 43026","1830 Zucchina Dr","Lot 204","Hilliard","OH","43026","Franklin",39.9882,-83.1737,"Single Family","New Construction",2,2.5,2027,6970,2025,190,"Inactive",499900,"2025-05-05T00:00:00.000Z","2025-08-27T00:00:00.000Z",114
"1","4702-Victory-Ln,-Hilliard,-OH-43026","4702 Victory Ln, Hilliard, OH 43026","4702 Victory Ln",NA,"Hilliard","OH","43026","Franklin",40.0473,-83.1698,"Condo","Standard",3,2.5,2368,6534,2023,268,"Inactive",525000,"2025-07-10T00:00:00.000Z","2025-08-27T00:00:00.000Z",48
"1","5232-Redlands-Dr,-Hilliard,-OH-43026","5232 Redlands Dr, Hilliard, OH 43026","5232 Redlands Dr",NA,"Hilliard","OH","43026","Franklin",40.0125,-83.1501,"Single Family","Standard",3,2.5,1542,7841,1989,NA,"Inactive",320000,"2025-07-29T00:00:00.000Z","2025-08-27T00:00:00.000Z",29
"1","5957-Lakefront-Ave,-Hilliard,-OH-43026","5957 Lakefront Ave, Hilliard, OH 43026","5957 Lakefront Ave",NA,"Hilliard","OH","43026","Franklin",39.9847,-83.1632,"Single Family","Standard",3,2.5,2052,7841,1987,NA,"Inactive",340000,"2025-07-30T00:00:00.000Z","2025-08-27T00:00:00.000Z",28
"1","5622-Andrea-Ln,-Hilliard,-OH-43026","5622 Andrea Ln, Hilliard, OH 43026","5622 Andrea Ln",NA,"Hilliard","OH","43026","Franklin",39.9931,-83.156,"Single Family","Standard",3,1.5,1484,8712,1985,NA,"Inactive",335000,"2025-07-15T00:00:00.000Z","2025-08-26T00:00:00.000Z",42
"1","3083-Landen-Farm-Rd-W,-Hilliard,-OH-43026","3083 Landen Farm Rd W, Hilliard, OH 43026","3083 Landen Farm Rd W",NA,"Hilliard","OH","43026","Franklin",40.0144,-83.1779,"Single Family","Standard",5,2.5,3340,12197,2001,31,"Inactive",599900,"2025-07-31T00:00:00.000Z","2025-08-26T00:00:00.000Z",26
"1","6128-Pisello-Dr,-Hilliard,-OH-43026","6128 Pisello Dr, Hilliard, OH 43026","6128 Pisello Dr",NA,"Hilliard","OH","43026","Franklin",39.9929,-83.1777,"Single Family","New Construction",4,1.5,3192,NA,NA,NA,"Inactive",649900,"2025-08-15T00:00:00.000Z","2025-08-26T00:00:00.000Z",11
"1","5175-Wyandot-Pl,-Hilliard,-OH-43026","5175 Wyandot Pl, Hilliard, OH 43026","5175 Wyandot Pl",NA,"Hilliard","OH","43026","Franklin",40.0263,-83.154,"Single Family","Standard",5,2,1772,7841,1959,NA,"Inactive",314900,"2025-06-14T00:00:00.000Z","2025-08-24T00:00:00.000Z",71
"1","3811-Bradford-Dr,-Hilliard,-OH-43026","3811 Bradford Dr, Hilliard, OH 43026","3811 Bradford Dr",NA,"Hilliard","OH","43026","Franklin",40.029,-83.1657,"Single Family","Standard",3,1,1517,7405,1958,NA,"Inactive",315000,"2025-06-20T00:00:00.000Z","2025-08-24T00:00:00.000Z",65
"1","3051-Landen-Farm-Rd-W,-Hilliard,-OH-43026","3051 Landen Farm Rd W, Hilliard, OH 43026","3051 Landen Farm Rd W",NA,"Hilliard","OH","43026","Franklin",40.0139,-83.1786,"Single Family","Standard",4,3,3883,10454,2001,31,"Inactive",575000,"2025-06-26T00:00:00.000Z","2025-08-24T00:00:00.000Z",59
"1","8777-Hayden-Run-Rd,-Hilliard,-OH-43026","8777 Hayden Run Rd, Hilliard, OH 43026","8777 Hayden Run Rd",NA,"Hilliard","OH","43026","Franklin",40.0458,-83.2428,"Land","Standard",NA,NA,NA,554954,NA,NA,"Inactive",895000,"2024-08-23T00:00:00.000Z","2025-08-23T00:00:00.000Z",365
"1","1845-Messner-Dr,-Unit-57E,-Hilliard,-OH-43026","1845 Messner Dr, Unit 57E, Hilliard, OH 43026","1845 Messner Dr","Unit 57E","Hilliard","OH","43026","Franklin",39.9884,-83.1578,"Condo","Standard",2,1.5,1024,436,1994,322,"Inactive",230000,"2025-06-09T00:00:00.000Z","2025-08-23T00:00:00.000Z",75
"1","3439-River-Landings-Blvd,-Hilliard,-OH-43026","3439 River Landings Blvd, Hilliard, OH 43026","3439 River Landings Blvd",NA,"Hilliard","OH","43026","Franklin",40.05,-83.1101,"Single Family","Standard",4,2.5,2322,8712,1990,10,"Inactive",529900,"2025-05-16T00:00:00.000Z","2025-08-22T00:00:00.000Z",98
"1","2037-Burbridge-Ln,-Unit-31B,-Hilliard,-OH-43026","2037 Burbridge Ln, Unit 31B, Hilliard, OH 43026","2037 Burbridge Ln","Unit 31B","Hilliard","OH","43026","Franklin",39.9919,-83.1575,"Condo","Standard",2,1.5,1024,436,1993,322,"Inactive",214000,"2025-05-16T00:00:00.000Z","2025-08-22T00:00:00.000Z",98
"1","5778-Lonerise-Ln,-Hilliard,-OH-43026","5778 Lonerise Ln, Hilliard, OH 43026","5778 Lonerise Ln",NA,"Hilliard","OH","43026","Franklin",39.9922,-83.1619,"Single Family","Standard",3,2.5,1480,6970,2002,23,"Inactive",340000,"2025-06-25T00:00:00.000Z","2025-08-22T00:00:00.000Z",58
"1","5695-Rachel-Ct,-Hilliard,-OH-43026","5695 Rachel Ct, Hilliard, OH 43026","5695 Rachel Ct",NA,"Hilliard","OH","43026","Franklin",39.9954,-83.1586,"Single Family","Standard",3,2.5,1378,9583,1981,NA,"Inactive",369900,"2025-06-27T00:00:00.000Z","2025-08-22T00:00:00.000Z",56
"1","3437-Crandon-St,-Hilliard,-OH-43026","3437 Crandon St, Hilliard, OH 43026","3437 Crandon St",NA,"Hilliard","OH","43026","Franklin",40.0229,-83.1321,"Single Family","Standard",4,1.5,1308,7405,1972,NA,"Inactive",289900,"2025-07-11T00:00:00.000Z","2025-08-22T00:00:00.000Z",42
"1","5809-Annmary-Rd,-Hilliard,-OH-43026","5809 Annmary Rd, Hilliard, OH 43026","5809 Annmary Rd",NA,"Hilliard","OH","43026","Franklin",39.9904,-83.1639,"Single Family","Standard",3,2.5,1732,7405,2003,20,"Inactive",349900,"2025-07-12T00:00:00.000Z","2025-08-22T00:00:00.000Z",41
"1","5725-Kilbury-Ln,-Unit-123C,-Hilliard,-OH-43026","5725 Kilbury Ln, Unit 123C, Hilliard, OH 43026","5725 Kilbury Ln","Unit 123C","Hilliard","OH","43026","Franklin",39.9862,-83.1571,"Condo","Standard",2,1.5,832,436,1994,253,"Inactive",195000,"2025-08-01T00:00:00.000Z","2025-08-22T00:00:00.000Z",21
"1","4665-Coolbrook-Dr,-Hilliard,-OH-43026","4665 Coolbrook Dr, Hilliard, OH 43026","4665 Coolbrook Dr",NA,"Hilliard","OH","43026","Franklin",40.0495,-83.1132,"Single Family","Standard",3,2.5,2697,9583,1992,9,"Inactive",499900,"2025-08-01T00:00:00.000Z","2025-08-22T00:00:00.000Z",21
"1","6360-Zuccaro-Dr,-Lot-137,-Hilliard,-OH-43026","6360 Zuccaro Dr, Lot 137, Hilliard, OH 43026","6360 Zuccaro Dr","Lot 137","Hilliard","OH","43026","Franklin",39.9879,-83.1782,"Single Family","New Construction",4,2.5,3380,7841,2022,95,"Inactive",709900,"2025-05-06T00:00:00.000Z","2025-08-21T00:00:00.000Z",107
"1","8384-Morris-Rd,-Hilliard,-OH-43026","8384 Morris Rd, Hilliard, OH 43026","8384 Morris Rd",NA,"Hilliard","OH","43026","Franklin",40.001,-83.2324,"Single Family","Standard",4,3,2370,217800,1980,NA,"Inactive",749900,"2025-06-11T00:00:00.000Z","2025-08-21T00:00:00.000Z",71
"1","5200-Williamsburg-Cir,-Hilliard,-OH-43026","5200 Williamsburg Cir, Hilliard, OH 43026","5200 Williamsburg Cir",NA,"Hilliard","OH","43026","Franklin",40.0213,-83.1537,"Single Family","Standard",3,1.5,1492,10019,1971,NA,"Inactive",359900,"2025-06-20T00:00:00.000Z","2025-08-21T00:00:00.000Z",62
"1","3687-Carriage-Run-Dr,-Hilliard,-OH-43026","3687 Carriage Run Dr, Hilliard, OH 43026","3687 Carriage Run Dr",NA,"Hilliard","OH","43026","Franklin",40.0275,-83.1453,"Single Family","Standard",3,2.5,1480,8276,1996,NA,"Inactive",374900,"2025-07-02T00:00:00.000Z","2025-08-21T00:00:00.000Z",50
"1","6107-Heritage-Farms-Dr,-Hilliard,-OH-43026","6107 Heritage Farms Dr, Hilliard, OH 43026","6107 Heritage Farms Dr",NA,"Hilliard","OH","43026","Franklin",40.0108,-83.1697,"Single Family","Standard",4,2.5,3402,15682,2004,NA,"Inactive",535000,"2025-07-11T00:00:00.000Z","2025-08-21T00:00:00.000Z",41
"1","3092-Andrew-James-Dr,-Hilliard,-OH-43026","3092 Andrew James Dr, Hilliard, OH 43026","3092 Andrew James Dr",NA,"Hilliard","OH","43026","Franklin",40.014,-83.1708,"Single Family","Standard",3,2,1475,6534,1999,NA,"Inactive",380000,"2025-07-11T00:00:00.000Z","2025-08-21T00:00:00.000Z",41
"1","5771-Walterway-Dr,-Hilliard,-OH-43026","5771 Walterway Dr, Hilliard, OH 43026","5771 Walterway Dr",NA,"Hilliard","OH","43026","Franklin",40.0403,-83.1731,"Single Family","Standard",4,2.5,2849,9583,2002,27,"Inactive",549900,"2025-07-16T00:00:00.000Z","2025-08-21T00:00:00.000Z",36
"1","3398-Fishinger-Mill-Dr,-Hilliard,-OH-43026","3398 Fishinger Mill Dr, Hilliard, OH 43026","3398 Fishinger Mill Dr",NA,"Hilliard","OH","43026","Franklin",40.0235,-83.1102,"Condo","Standard",2,2,1152,NA,1988,351,"Inactive",224900,"2025-07-17T00:00:00.000Z","2025-08-21T00:00:00.000Z",35
"1","2955-Cutler-Dr,-Hilliard,-OH-43026","2955 Cutler Dr, Hilliard, OH 43026","2955 Cutler Dr",NA,"Hilliard","OH","43026","Franklin",40.0122,-83.1434,"Single Family","Standard",3,2.5,1542,7841,1990,NA,"Inactive",399900,"2025-07-19T00:00:00.000Z","2025-08-21T00:00:00.000Z",33
"1","5614-Eventing-Way,-Hilliard,-OH-43026","5614 Eventing Way, Hilliard, OH 43026","5614 Eventing Way",NA,"Hilliard","OH","43026","Franklin",40.053,-83.168,"Condo","Standard",2,2,1773,2614,2015,500,"Inactive",464900,"2025-04-08T00:00:00.000Z","2025-08-20T00:00:00.000Z",134
"1","3445-Darbyshire-Dr,-Hilliard,-OH-43026","3445 Darbyshire Dr, Hilliard, OH 43026","3445 Darbyshire Dr",NA,"Hilliard","OH","43026","Franklin",40.0444,-83.1104,"Single Family","Standard",4,2.5,2240,12197,1961,NA,"Inactive",475000,"2025-06-07T00:00:00.000Z","2025-08-20T00:00:00.000Z",74
"1","5497-Mirage-Dr,-Hilliard,-OH-43026","5497 Mirage Dr, Hilliard, OH 43026","5497 Mirage Dr",NA,"Hilliard","OH","43026","Franklin",40.0016,-83.1593,"Single Family","Standard",4,2.5,2266,6970,2000,NA,"Inactive",449900,"2025-06-26T00:00:00.000Z","2025-08-20T00:00:00.000Z",55
"1","3388-Smileys-Cor,-Hilliard,-OH-43026","3388 Smileys Cor, Hilliard, OH 43026","3388 Smileys Cor",NA,"Hilliard","OH","43026","Franklin",40.0232,-83.1124,"Condo","Standard",2,2,1152,436,1988,301,"Inactive",240000,"2025-07-05T00:00:00.000Z","2025-08-20T00:00:00.000Z",46
"1","5930-Lakefront-Ave,-Hilliard,-OH-43026","5930 Lakefront Ave, Hilliard, OH 43026","5930 Lakefront Ave",NA,"Hilliard","OH","43026","Franklin",39.9851,-83.1624,"Single Family","Standard",3,2.5,1552,8712,1988,NA,"Inactive",350000,"2025-07-09T00:00:00.000Z","2025-08-20T00:00:00.000Z",42
"1","5701-Kilbury-Ln,-Unit-124A,-Hilliard,-OH-43026","5701 Kilbury Ln, Unit 124A, Hilliard, OH 43026","5701 Kilbury Ln","Unit 124A","Hilliard","OH","43026","Franklin",39.9861,-83.1563,"Condo","Standard",3,2,1024,436,1994,265,"Inactive",235000,"2025-07-09T00:00:00.000Z","2025-08-20T00:00:00.000Z",42
"1","5176-Drivemere-Rd,-Hilliard,-OH-43026","5176 Drivemere Rd, Hilliard, OH 43026","5176 Drivemere Rd",NA,"Hilliard","OH","43026","Franklin",40.0292,-83.1544,"Single Family","Standard",3,1,1386,7841,1959,NA,"Inactive",299888,"2025-07-12T00:00:00.000Z","2025-08-20T00:00:00.000Z",39
"1","5981-Brookmont-Dr,-Hilliard,-OH-43026","5981 Brookmont Dr, Hilliard, OH 43026","5981 Brookmont Dr",NA,"Hilliard","OH","43026","Franklin",40.0028,-83.1687,"Single Family","Standard",3,2.5,2300,5227,1998,NA,"Inactive",385000,"2025-07-24T00:00:00.000Z","2025-08-20T00:00:00.000Z",27
"1","4714-Champion-Ln,-Hilliard,-OH-43026","4714 Champion Ln, Hilliard, OH 43026","4714 Champion Ln",NA,"Hilliard","OH","43026","Franklin",40.0477,-83.1678,"Single Family","New Construction",3,2.5,2154,NA,2025,NA,"Inactive",645310,"2025-08-11T00:00:00.000Z","2025-08-20T00:00:00.000Z",9
"1","3292-Paradise-Ave,-Hilliard,-OH-43026","3292 Paradise Ave, Hilliard, OH 43026","3292 Paradise Ave",NA,"Hilliard","OH","43026","Franklin",40.0188,-83.1483,"Single Family","Standard",3,2.5,1586,10890,1991,NA,"Inactive",374900,"2025-07-07T00:00:00.000Z","2025-08-17T00:00:00.000Z",41
"1","2594-Roberts-Ct,-Hilliard,-OH-43026","2594 Roberts Ct, Hilliard, OH 43026","2594 Roberts Ct",NA,"Hilliard","OH","43026","Franklin",40.0053,-83.1428,"Condo","Standard",2,2,1237,1742,1998,265,"Inactive",283900,"2025-05-21T00:00:00.000Z","2025-08-16T00:00:00.000Z",87
"1","4609-Stoneworth-Dr,-Unit-58,-Hilliard,-OH-43026","4609 Stoneworth Dr, Unit 58, Hilliard, OH 43026","4609 Stoneworth Dr","Unit 58","Hilliard","OH","43026","Franklin",40.0442,-83.1413,"Condo","Standard",4,3.5,2733,2178,2012,330,"Inactive",409900,"2025-06-10T00:00:00.000Z","2025-08-16T00:00:00.000Z",67
"1","3251-Foxpoint-Dr,-Hilliard,-OH-43026","3251 Foxpoint Dr, Hilliard, OH 43026","3251 Foxpoint Dr",NA,"Hilliard","OH","43026","Franklin",40.0176,-83.1562,"Single Family","Standard",3,2.5,1630,10019,1991,NA,"Inactive",359900,"2025-06-16T00:00:00.000Z","2025-08-16T00:00:00.000Z",61
"1","5692-Palos-Ln,-Unit-168D,-Hilliard,-OH-43026","5692 Palos Ln, Unit 168D, Hilliard, OH 43026","5692 Palos Ln","Unit 168D","Hilliard","OH","43026","Franklin",39.9849,-83.1563,"Condo","Standard",2,1,832,436,1996,253,"Inactive",179900,"2025-07-09T00:00:00.000Z","2025-08-16T00:00:00.000Z",38
"1","4867-Sarasota-Ct,-Hilliard,-OH-43026","4867 Sarasota Ct, Hilliard, OH 43026","4867 Sarasota Ct",NA,"Hilliard","OH","43026","Franklin",40.0509,-83.1455,"Single Family","Standard",4,3.5,2584,16553,1990,8,"Inactive",535000,"2025-07-10T00:00:00.000Z","2025-08-16T00:00:00.000Z",37
"1","2241-Hackney-Ct,-Hilliard,-OH-43026","2241 Hackney Ct, Hilliard, OH 43026","2241 Hackney Ct",NA,"Hilliard","OH","43026","Franklin",39.9972,-83.1607,"Single Family","Standard",3,2.5,1692,7405,1993,NA,"Inactive",350000,"2025-07-11T00:00:00.000Z","2025-08-16T00:00:00.000Z",36
"1","3279-Prairie-Gardens-Dr,-Hilliard,-OH-43026","3279 Prairie Gardens Dr, Hilliard, OH 43026","3279 Prairie Gardens Dr",NA,"Hilliard","OH","43026","Franklin",40.02,-83.1305,"Single Family","Standard",4,2.5,1870,8276,1994,NA,"Inactive",427900,"2025-07-21T00:00:00.000Z","2025-08-16T00:00:00.000Z",26
"1","3691-Carriage-Run-Dr,-Hilliard,-OH-43026","3691 Carriage Run Dr, Hilliard, OH 43026","3691 Carriage Run Dr",NA,"Hilliard","OH","43026","Franklin",40.0274,-83.1455,"Single Family","Standard",3,2.5,1892,8276,1994,NA,"Inactive",340000,"2025-07-27T00:00:00.000Z","2025-08-15T00:00:00.000Z",19
"1","6344-Zuccaro-Dr,-Hilliard,-OH-43026","6344 Zuccaro Dr, Hilliard, OH 43026","6344 Zuccaro Dr",NA,"Hilliard","OH","43026","Franklin",39.988,-83.178,"Single Family","New Construction",3,3,2784,NA,NA,NA,"Inactive",594900,"2025-08-09T00:00:00.000Z","2025-08-15T00:00:00.000Z",6
"1","4381-Kabarda-Way,-Hilliard,-OH-43026","4381 Kabarda Way, Hilliard, OH 43026","4381 Kabarda Way",NA,"Hilliard","OH","43026","Franklin",40.0388,-83.2013,"Single Family","New Construction",3,2.5,2596,6970,2025,53,"Inactive",608250,"2025-05-01T00:00:00.000Z","2025-08-14T00:00:00.000Z",105
"1","4891-Stoneybrook-Blvd,-Unit-25F,-Hilliard,-OH-43026","4891 Stoneybrook Blvd, Unit 25F, Hilliard, OH 43026","4891 Stoneybrook Blvd","Unit 25F","Hilliard","OH","43026","Franklin",40.0171,-83.1426,"Condo","Standard",3,1.5,1031,871,1989,340,"Inactive",235000,"2025-06-12T00:00:00.000Z","2025-08-14T00:00:00.000Z",63
"1","3622-Switchgrass-Ct,-Hilliard,-OH-43026","3622 Switchgrass Ct, Hilliard, OH 43026","3622 Switchgrass Ct",NA,"Hilliard","OH","43026","Franklin",40.0244,-83.1894,"Single Family","Standard",4,2.5,3321,15246,2020,17,"Inactive",789975,"2025-06-25T00:00:00.000Z","2025-08-14T00:00:00.000Z",50
"1","4843-Edison-St,-Hilliard,-OH-43026","4843 Edison St, Hilliard, OH 43026","4843 Edison St",NA,"Hilliard","OH","43026","Franklin",40.05,-83.1695,"Single Family","New Construction",2,2,2016,NA,2024,NA,"Inactive",644355,"2025-07-31T00:00:00.000Z","2025-08-14T00:00:00.000Z",14
"1","4129-Winterringer-St,-Hilliard,-OH-43026","4129 Winterringer St, Hilliard, OH 43026","4129 Winterringer St",NA,"Hilliard","OH","43026","Franklin",40.0356,-83.1617,"Single Family","Standard",3,1.5,1035,6098,1953,NA,"Inactive",284900,"2025-08-09T00:00:00.000Z","2025-08-14T00:00:00.000Z",5
"1","1814-Bennigan-Dr,-Unit-88B,-Hilliard,-OH-43026","1814 Bennigan Dr, Unit 88B, Hilliard, OH 43026","1814 Bennigan Dr","Unit 88B","Hilliard","OH","43026","Franklin",39.9881,-83.1558,"Condo","Standard",2,1.5,1224,871,1995,322,"Inactive",227900,"2025-06-24T00:00:00.000Z","2025-08-13T00:00:00.000Z",50
"1","3645-Jo-Ann-Ln,-Hilliard,-OH-43026","3645 Jo Ann Ln, Hilliard, OH 43026","3645 Jo Ann Ln",NA,"Hilliard","OH","43026","Franklin",40.0265,-83.1515,"Single Family","Standard",3,1,1073,7841,1970,NA,"Inactive",255000,"2025-07-10T00:00:00.000Z","2025-08-13T00:00:00.000Z",34
"1","2522-Charles-Mill-Dr,-Hilliard,-OH-43026","2522 Charles Mill Dr, Hilliard, OH 43026","2522 Charles Mill Dr",NA,"Hilliard","OH","43026","Franklin",40.0021,-83.165,"Single Family","Standard",4,2.5,2669,10019,1995,NA,"Inactive",479900,"2025-07-12T00:00:00.000Z","2025-08-13T00:00:00.000Z",32
"1","4812-Diplomat-Way,-Hilliard,-OH-43026","4812 Diplomat Way, Hilliard, OH 43026","4812 Diplomat Way",NA,"Hilliard","OH","43026","Franklin",40.0494,-83.1678,"Single Family","New Construction",3,3,2481,NA,2025,255,"Inactive",649210,"2025-03-03T00:00:00.000Z","2025-08-12T00:00:00.000Z",162
"1","5685-Slater-Rdg,-Hilliard,-OH-43026","5685 Slater Rdg, Hilliard, OH 43026","5685 Slater Rdg",NA,"Hilliard","OH","43026","Franklin",40.0548,-83.1727,"Condo","Standard",3,3,2949,2614,2014,456,"Inactive",499900,"2025-06-12T00:00:00.000Z","2025-08-12T00:00:00.000Z",61
"1","7472-Davis-Rd,-Hilliard,-OH-43026","7472 Davis Rd, Hilliard, OH 43026","7472 Davis Rd",NA,"Hilliard","OH","43026","Franklin",40.0196,-83.21,"Single Family","Standard",3,2,1422,34412,1973,NA,"Inactive",425000,"2025-06-26T00:00:00.000Z","2025-08-12T00:00:00.000Z",47
"1","5924-Saucony-Dr,-Hilliard,-OH-43026","5924 Saucony Dr, Hilliard, OH 43026","5924 Saucony Dr",NA,"Hilliard","OH","43026","Franklin",39.998,-83.1653,"Single Family","Standard",3,2.5,1568,8712,1991,NA,"Inactive",349000,"2025-07-12T00:00:00.000Z","2025-08-12T00:00:00.000Z",31
"1","4781-Glanstonbury-Dr,-Hilliard,-OH-43026","4781 Glanstonbury Dr, Hilliard, OH 43026","4781 Glanstonbury Dr",NA,"Hilliard","OH","43026","Franklin",40.0534,-83.1458,"Single Family","Standard",3,2,3110,17424,1995,9,"Inactive",549900,"2025-07-22T00:00:00.000Z","2025-08-12T00:00:00.000Z",21
"1","3005-Tempe-Ct,-Hilliard,-OH-43026","3005 Tempe Ct, Hilliard, OH 43026","3005 Tempe Ct",NA,"Hilliard","OH","43026","Franklin",40.0129,-83.153,"Single Family","Standard",3,2.5,2016,8276,1992,NA,"Inactive",399999,"2025-07-18T00:00:00.000Z","2025-08-11T00:00:00.000Z",24
"1","1831-Melanzana-Dr,-Lot-227,-Hilliard,-OH-43026","1831 Melanzana Dr, Lot 227, Hilliard, OH 43026","1831 Melanzana Dr","Lot 227","Hilliard","OH","43026","Franklin",39.9882,-83.1731,"Single Family","New Construction",3,3,2313,6534,2025,190,"Inactive",539900,"2025-05-05T00:00:00.000Z","2025-08-09T00:00:00.000Z",96
"1","4359-Shire-Cove-Rd,-Hilliard,-OH-43026","4359 Shire Cove Rd, Hilliard, OH 43026","4359 Shire Cove Rd",NA,"Hilliard","OH","43026","Franklin",40.059,-83.1087,"Single Family","Standard",3,2.5,3039,22216,1978,NA,"Inactive",600000,"2025-05-23T00:00:00.000Z","2025-08-09T00:00:00.000Z",78
"1","6150-Heritage-Lakes-Dr,-Hilliard,-OH-43026","6150 Heritage Lakes Dr, Hilliard, OH 43026","6150 Heritage Lakes Dr",NA,"Hilliard","OH","43026","Franklin",40.0233,-83.1797,"Single Family","Standard",5,4.5,4857,17860,1999,40,"Inactive",799500,"2025-06-18T00:00:00.000Z","2025-08-09T00:00:00.000Z",52
"1","2328-Shelby-Ln,-Hilliard,-OH-43026","2328 Shelby Ln, Hilliard, OH 43026","2328 Shelby Ln",NA,"Hilliard","OH","43026","Franklin",39.9979,-83.1436,"Single Family","Standard",3,2.5,1766,6098,1997,5,"Inactive",379900,"2025-07-09T00:00:00.000Z","2025-08-09T00:00:00.000Z",31
"1","5264-Davidson-Rd,-Hilliard,-OH-43026","5264 Davidson Rd, Hilliard, OH 43026","5264 Davidson Rd",NA,"Hilliard","OH","43026","Franklin",40.0483,-83.1608,"Single Family","Standard",3,2,1514,10454,1986,NA,"Inactive",359900,"2025-06-14T00:00:00.000Z","2025-08-08T00:00:00.000Z",55
"1","5081-Mengel-Ln,-Hilliard,-OH-43026","5081 Mengel Ln, Hilliard, OH 43026","5081 Mengel Ln",NA,"Hilliard","OH","43026","Franklin",40.0229,-83.1509,"Single Family","Standard",3,2,1682,8712,1959,NA,"Inactive",369900,"2025-07-08T00:00:00.000Z","2025-08-08T00:00:00.000Z",31
"1","5547-Oldwynne-Rd,-Hilliard,-OH-43026","5547 Oldwynne Rd, Hilliard, OH 43026","5547 Oldwynne Rd",NA,"Hilliard","OH","43026","Franklin",40.0058,-83.1595,"Single Family","Standard",4,2.5,2390,8276,2001,NA,"Inactive",449900,"2025-05-27T00:00:00.000Z","2025-08-07T00:00:00.000Z",72
"1","6003-Heritage-Farms-Dr,-Hilliard,-OH-43026","6003 Heritage Farms Dr, Hilliard, OH 43026","6003 Heritage Farms Dr",NA,"Hilliard","OH","43026","Franklin",40.0088,-83.1695,"Single Family","Standard",3,2.5,1597,9583,1998,NA,"Inactive",399900,"2025-07-09T00:00:00.000Z","2025-08-07T00:00:00.000Z",29
"1","3161-Walkerview-Dr,-Hilliard,-OH-43026","3161 Walkerview Dr, Hilliard, OH 43026","3161 Walkerview Dr",NA,"Hilliard","OH","43026","Franklin",40.0156,-83.18,"Single Family","Standard",4,3,3868,12197,2002,31,"Inactive",610000,"2025-06-12T00:00:00.000Z","2025-08-06T00:00:00.000Z",55
"1","5695-Converse-Ct,-Hilliard,-OH-43026","5695 Converse Ct, Hilliard, OH 43026","5695 Converse Ct",NA,"Hilliard","OH","43026","Franklin",39.9962,-83.1587,"Single Family","Standard",3,1.5,1453,7405,1991,NA,"Inactive",349900,"2025-06-25T00:00:00.000Z","2025-08-06T00:00:00.000Z",42
"1","5421-Schatz-Ln,-Hilliard,-OH-43026","5421 Schatz Ln, Hilliard, OH 43026","5421 Schatz Ln",NA,"Hilliard","OH","43026","Franklin",40.0069,-83.152,"Single Family","Standard",3,2.5,1728,20473,1964,NA,"Inactive",379900,"2025-06-27T00:00:00.000Z","2025-08-06T00:00:00.000Z",40
"1","5746-Timber-Top-Dr,-Hilliard,-OH-43026","5746 Timber Top Dr, Hilliard, OH 43026","5746 Timber Top Dr",NA,"Hilliard","OH","43026","Franklin",40.0564,-83.1741,"Condo","Standard",2,2,1600,2178,2010,400,"Inactive",389900,"2025-08-03T00:00:00.000Z","2025-08-06T00:00:00.000Z",3
"1","5535-Village-Xing,-Hilliard,-OH-43026","5535 Village Xing, Hilliard, OH 43026","5535 Village Xing",NA,"Hilliard","OH","43026","Franklin",40.0055,-83.1566,"Condo","Standard",2,2.5,1556,871,1996,265,"Inactive",285000,"2025-06-13T00:00:00.000Z","2025-08-05T00:00:00.000Z",53
"1","3124-Hillrose-Dr,-Hilliard,-OH-43026","3124 Hillrose Dr, Hilliard, OH 43026","3124 Hillrose Dr",NA,"Hilliard","OH","43026","Franklin",40.0161,-83.1412,"Single Family","Standard",3,2.5,1782,8276,1989,NA,"Inactive",370000,"2025-06-18T00:00:00.000Z","2025-08-05T00:00:00.000Z",48
"1","2883-Castlebrook-Ave,-Hilliard,-OH-43026","2883 Castlebrook Ave, Hilliard, OH 43026","2883 Castlebrook Ave",NA,"Hilliard","OH","43026","Franklin",40.0107,-83.1472,"Single Family","Standard",3,2.5,1542,7405,1990,NA,"Inactive",339000,"2025-07-08T00:00:00.000Z","2025-08-05T00:00:00.000Z",28
"1","3258-Scioto-Farms-Dr,-Hilliard,-OH-43026","3258 Scioto Farms Dr, Hilliard, OH 43026","3258 Scioto Farms Dr",NA,"Hilliard","OH","43026","Franklin",40.0188,-83.1447,"Single Family","Standard",4,2.5,2253,9148,1996,11,"Inactive",415000,"2025-07-09T00:00:00.000Z","2025-08-05T00:00:00.000Z",27
"1","2744-Brittany-Oaks-Blvd,-Hilliard,-OH-43026","2744 Brittany Oaks Blvd, Hilliard, OH 43026","2744 Brittany Oaks Blvd",NA,"Hilliard","OH","43026","Franklin",40.0069,-83.1676,"Condo","Standard",2,2,1005,1742,1994,300,"Inactive",249900,"2025-05-27T00:00:00.000Z","2025-08-02T00:00:00.000Z",67
"1","5678-Mango-Ln,-Unit-104A,-Hilliard,-OH-43026","5678 Mango Ln, Unit 104A, Hilliard, OH 43026","5678 Mango Ln","Unit 104A","Hilliard","OH","43026","Franklin",39.9904,-83.1565,"Condo","Standard",2,2.5,1152,436,1995,330,"Inactive",204900,"2025-06-09T00:00:00.000Z","2025-08-02T00:00:00.000Z",54
"1","5153-Singleton-Dr,-Unit-44B,-Hilliard,-OH-43026","5153 Singleton Dr, Unit 44B, Hilliard, OH 43026","5153 Singleton Dr","Unit 44B","Hilliard","OH","43026","Franklin",40.0097,-83.146,"Condo","Standard",2,1.5,1029,436,1991,192,"Inactive",195000,"2025-06-20T00:00:00.000Z","2025-08-02T00:00:00.000Z",43
"1","3007-Galen-Ct,-Hilliard,-OH-43026","3007 Galen Ct, Hilliard, OH 43026","3007 Galen Ct",NA,"Hilliard","OH","43026","Franklin",40.0128,-83.1509,"Single Family","Standard",3,2,1578,12197,1988,NA,"Inactive",349900,"2025-07-02T00:00:00.000Z","2025-08-02T00:00:00.000Z",31
"1","2378-Yagger-Bay-Dr,-Hilliard,-OH-43026","2378 Yagger Bay Dr, Hilliard, OH 43026","2378 Yagger Bay Dr",NA,"Hilliard","OH","43026","Franklin",40.0008,-83.1451,"Single Family","Standard",3,2.5,2100,6098,1999,5,"Inactive",419900,"2025-07-03T00:00:00.000Z","2025-08-02T00:00:00.000Z",30
"1","3612-Ridgewood-Dr,-Hilliard,-OH-43026","3612 Ridgewood Dr, Hilliard, OH 43026","3612 Ridgewood Dr",NA,"Hilliard","OH","43026","Franklin",40.0454,-83.114,"Single Family","Standard",3,2.5,2139,13068,1962,NA,"Inactive",459900,"2025-07-09T00:00:00.000Z","2025-08-02T00:00:00.000Z",24
"1","3381-Fishinger-Mill-Dr,-Hilliard,-OH-43026","3381 Fishinger Mill Dr, Hilliard, OH 43026","3381 Fishinger Mill Dr",NA,"Hilliard","OH","43026","Franklin",40.023,-83.1112,"Condo","Standard",3,2.5,1568,871,1988,420,"Inactive",300000,"2025-06-12T00:00:00.000Z","2025-08-01T00:00:00.000Z",50
"1","6774-Ardennes-Loop-S,-Hilliard,-OH-43026","6774 Ardennes Loop S, Hilliard, OH 43026","6774 Ardennes Loop S",NA,"Hilliard","OH","43026","Franklin",40.0366,-83.1983,"Single Family","New Construction",3,2,1537,6534,2024,53,"Inactive",524900,"2025-06-13T00:00:00.000Z","2025-08-01T00:00:00.000Z",49
"1","4851-Hillcrest-St-N,-Hilliard,-OH-43026","4851 Hillcrest St N, Hilliard, OH 43026","4851 Hillcrest St N",NA,"Hilliard","OH","43026","Franklin",40.03,-83.1459,"Single Family","Standard",3,2,1440,7405,1958,NA,"Inactive",315000,"2025-06-23T00:00:00.000Z","2025-08-01T00:00:00.000Z",39
"1","3379-Fishinger-Mill-Dr,-Hilliard,-OH-43026","3379 Fishinger Mill Dr, Hilliard, OH 43026","3379 Fishinger Mill Dr",NA,"Hilliard","OH","43026","Franklin",40.0229,-83.1112,"Condo","Standard",2,2.5,1472,871,1988,403,"Inactive",285000,"2025-04-14T00:00:00.000Z","2025-07-31T00:00:00.000Z",108
"1","4401-Kathryns-Way,-Hilliard,-OH-43026","4401 Kathryns Way, Hilliard, OH 43026","4401 Kathryns Way",NA,"Hilliard","OH","43026","Franklin",40.0401,-83.185,"Single Family","Standard",4,3.5,2772,10454,2004,31,"Inactive",589900,"2025-06-12T00:00:00.000Z","2025-07-31T00:00:00.000Z",49
"1","5794-Saucony-Dr,-Hilliard,-OH-43026","5794 Saucony Dr, Hilliard, OH 43026","5794 Saucony Dr",NA,"Hilliard","OH","43026","Franklin",39.9978,-83.1618,"Single Family","Standard",3,1.5,1406,7405,1991,NA,"Inactive",325000,"2025-06-24T00:00:00.000Z","2025-07-31T00:00:00.000Z",37
"1","3712-E-Links-Cir,-Hilliard,-OH-43026","3712 E Links Cir, Hilliard, OH 43026","3712 E Links Cir",NA,"Hilliard","OH","43026","Franklin",40.0264,-83.1669,"Condo","Standard",2,2,1469,2178,1997,414,"Inactive",310000,"2025-07-14T00:00:00.000Z","2025-07-31T00:00:00.000Z",17
"1","4359-Packard-Dr,-Hilliard,-OH-43026","4359 Packard Dr, Hilliard, OH 43026","4359 Packard Dr",NA,"Hilliard","OH","43026","Franklin",40.0404,-83.1613,"Single Family","Standard",3,1,1344,7405,1960,NA,"Inactive",299999,"2025-05-26T00:00:00.000Z","2025-07-30T00:00:00.000Z",65
"1","6270-Acacia-Dr,-Hilliard,-OH-43026","6270 Acacia Dr, Hilliard, OH 43026","6270 Acacia Dr",NA,"Hilliard","OH","43026","Franklin",40.0479,-83.1861,"Single Family","Standard",4,3.5,3408,13068,2006,19,"Inactive",589900,"2025-06-12T00:00:00.000Z","2025-07-30T00:00:00.000Z",48
"1","6172-Rays-Way,-Unit-19,-Hilliard,-OH-43026","6172 Rays Way, Unit 19, Hilliard, OH 43026","6172 Rays Way","Unit 19","Hilliard","OH","43026","Franklin",40.0433,-83.1838,"Condo","Standard",3,2.5,2227,2178,2015,425,"Inactive",445000,"2025-04-23T00:00:00.000Z","2025-07-29T00:00:00.000Z",97
"1","2715-Field-Post-Ct,-Hilliard,-OH-43026","2715 Field Post Ct, Hilliard, OH 43026","2715 Field Post Ct",NA,"Hilliard","OH","43026","Franklin",40.0068,-83.1618,"Single Family","Standard",3,2.5,1960,10890,1989,NA,"Inactive",439900,"2025-06-10T00:00:00.000Z","2025-07-29T00:00:00.000Z",49
"1","2375-Oakthorpe-Dr,-Hilliard,-OH-43026","2375 Oakthorpe Dr, Hilliard, OH 43026","2375 Oakthorpe Dr",NA,"Hilliard","OH","43026","Franklin",40.0008,-83.1594,"Single Family","Standard",3,2.5,1870,8276,1995,NA,"Inactive",395000,"2025-06-24T00:00:00.000Z","2025-07-29T00:00:00.000Z",35
"1","3419-River-Narrows-Rd,-Hilliard,-OH-43026","3419 River Narrows Rd, Hilliard, OH 43026","3419 River Narrows Rd",NA,"Hilliard","OH","43026","Franklin",40.0489,-83.1096,"Single Family","Standard",3,2.5,2760,9583,1992,10,"Inactive",549900,"2025-06-25T00:00:00.000Z","2025-07-29T00:00:00.000Z",34
"1","2894-Hilliard-Rome-Rd,-Hilliard,-OH-43026","2894 Hilliard Rome Rd, Hilliard, OH 43026","2894 Hilliard Rome Rd",NA,"Hilliard","OH","43026","Franklin",40.011,-83.153,"Land","Standard",NA,NA,NA,21780,NA,NA,"Inactive",80000,"2025-07-21T00:00:00.000Z","2025-07-27T00:00:00.000Z",6
"1","6034-Heritage-View-Ct,-Hilliard,-OH-43026","6034 Heritage View Ct, Hilliard, OH 43026","6034 Heritage View Ct",NA,"Hilliard","OH","43026","Franklin",40.0235,-83.1766,"Single Family","Standard",4,2.5,3447,14810,1999,40,"Inactive",824000,"2025-06-04T00:00:00.000Z","2025-07-26T00:00:00.000Z",52
"1","6326-Anguria-Dr,-Lot-244,-Hilliard,-OH-43026","6326 Anguria Dr, Lot 244, Hilliard, OH 43026","6326 Anguria Dr","Lot 244","Hilliard","OH","43026","Franklin",39.9916,-83.1783,"Single Family","New Construction",5,3,3008,6098,2025,95,"Inactive",594900,"2025-03-28T00:00:00.000Z","2025-07-24T00:00:00.000Z",118
"1","5789-Park-Pl,-Hilliard,-OH-43026","5789 Park Pl, Hilliard, OH 43026","5789 Park Pl",NA,"Hilliard","OH","43026","Franklin",40.0411,-83.1737,"Single Family","Standard",4,3,2869,9583,2002,27,"Inactive",525000,"2025-04-24T00:00:00.000Z","2025-07-24T00:00:00.000Z",91
"1","4801-Lady-Jane-Ave,-Unit-29B,-Hilliard,-OH-43026","4801 Lady Jane Ave, Unit 29B, Hilliard, OH 43026","4801 Lady Jane Ave","Unit 29B","Hilliard","OH","43026","Franklin",40.0499,-83.1606,"Condo","Standard",3,2.5,1676,871,1989,220,"Inactive",215000,"2025-05-16T00:00:00.000Z","2025-07-24T00:00:00.000Z",69
"1","5151-Redlands-Dr,-Hilliard,-OH-43026","5151 Redlands Dr, Hilliard, OH 43026","5151 Redlands Dr",NA,"Hilliard","OH","43026","Franklin",40.012,-83.1478,"Single Family","Standard",3,2.5,1892,11326,1989,NA,"Inactive",389900,"2025-06-07T00:00:00.000Z","2025-07-24T00:00:00.000Z",47
"1","4006-Darby-Park-Rd,-Hilliard,-OH-43026","4006 Darby Park Rd, Hilliard, OH 43026","4006 Darby Park Rd",NA,"Hilliard","OH","43026","Franklin",40.0326,-83.1738,"Condo","Standard",3,2.5,2500,NA,2001,275,"Inactive",350000,"2025-06-09T00:00:00.000Z","2025-07-24T00:00:00.000Z",45
"1","2885-Wynneleaf-St,-Hilliard,-OH-43026","2885 Wynneleaf St, Hilliard, OH 43026","2885 Wynneleaf St",NA,"Hilliard","OH","43026","Franklin",40.0101,-83.16,"Single Family","Standard",4,2.5,2638,7841,1996,NA,"Inactive",459900,"2025-06-18T00:00:00.000Z","2025-07-24T00:00:00.000Z",36
"1","1812-Bennigan-Dr,-Unit-88C,-Hilliard,-OH-43026","1812 Bennigan Dr, Unit 88C, Hilliard, OH 43026","1812 Bennigan Dr","Unit 88C","Hilliard","OH","43026","Franklin",39.988,-83.1558,"Condo","Standard",2,1.5,1224,871,1995,322,"Inactive",224900,"2025-06-20T00:00:00.000Z","2025-07-24T00:00:00.000Z",34
"1","4518-Nonius-Dr,-Hilliard,-OH-43026","4518 Nonius Dr, Hilliard, OH 43026","4518 Nonius Dr",NA,"Hilliard","OH","43026","Franklin",40.0359,-83.1966,"Single Family","New Construction",2,2,1789,NA,2025,NA,"Inactive",510460,"2025-07-12T00:00:00.000Z","2025-07-24T00:00:00.000Z",12
"1","5718-Brook-Hollow-Dr,-Hilliard,-OH-43026","5718 Brook Hollow Dr, Hilliard, OH 43026","5718 Brook Hollow Dr",NA,"Hilliard","OH","43026","Franklin",40.0058,-83.1644,"Single Family","Standard",3,2,1486,7405,1992,NA,"Inactive",435000,"2025-05-29T00:00:00.000Z","2025-07-23T00:00:00.000Z",55
"1","3646-Hilliard-Station-Rd,-Hilliard,-OH-43026","3646 Hilliard Station Rd, Hilliard, OH 43026","3646 Hilliard Station Rd",NA,"Hilliard","OH","43026","Franklin",40.0228,-83.1105,"Condo","Standard",2,2.5,1272,871,1988,403,"Inactive",296900,"2025-06-04T00:00:00.000Z","2025-07-23T00:00:00.000Z",49
"1","7365-Hayden-Run-Rd,-Hilliard,-OH-43026","7365 Hayden Run Rd, Hilliard, OH 43026","7365 Hayden Run Rd",NA,"Hilliard","OH","43026","Franklin",40.0591,-83.1973,"Single Family","Standard",2,1,680,22216,1900,NA,"Inactive",75000,"2025-06-12T00:00:00.000Z","2025-07-23T00:00:00.000Z",41
"1","5192-Hayden-Woods-Ln,-Hilliard,-OH-43026","5192 Hayden Woods Ln, Hilliard, OH 43026","5192 Hayden Woods Ln",NA,"Hilliard","OH","43026","Franklin",40.0572,-83.1758,"Condo","Standard",3,2,1828,2614,2007,400,"Inactive",399900,"2025-07-16T00:00:00.000Z","2025-07-23T00:00:00.000Z",7
"1","4201-Abbey-Chase-Ct,-Hilliard,-OH-43026","4201 Abbey Chase Ct, Hilliard, OH 43026","4201 Abbey Chase Ct",NA,"Hilliard","OH","43026","Franklin",40.0373,-83.2233,"Single Family","Standard",3,3.5,4377,231304,2012,42,"Inactive",929900,"2025-04-24T00:00:00.000Z","2025-07-22T00:00:00.000Z",89
"1","1733-Messner-Dr,-Unit-151D,-Hilliard,-OH-43026","1733 Messner Dr, Unit 151D, Hilliard, OH 43026","1733 Messner Dr","Unit 151D","Hilliard","OH","43026","Franklin",39.9852,-83.1581,"Condo","Standard",2,1,832,436,1994,203,"Inactive",190000,"2025-05-16T00:00:00.000Z","2025-07-22T00:00:00.000Z",67
"1","5062-Hilliard-Green-Dr,-Hilliard,-OH-43026","5062 Hilliard Green Dr, Hilliard, OH 43026","5062 Hilliard Green Dr",NA,"Hilliard","OH","43026","Franklin",39.9998,-83.1421,"Single Family","Standard",3,2.5,1804,5663,1997,NA,"Inactive",386000,"2025-05-29T00:00:00.000Z","2025-07-22T00:00:00.000Z",54
"1","2124-Ripple-Rd,-Hilliard,-OH-43026","2124 Ripple Rd, Hilliard, OH 43026","2124 Ripple Rd",NA,"Hilliard","OH","43026","Franklin",39.9949,-83.1646,"Single Family","Standard",3,2.5,1769,5663,2002,23,"Inactive",349900,"2025-06-10T00:00:00.000Z","2025-07-22T00:00:00.000Z",42
"1","5960-Ancestor-Dr,-Hilliard,-OH-43026","5960 Ancestor Dr, Hilliard, OH 43026","5960 Ancestor Dr",NA,"Hilliard","OH","43026","Franklin",40.0147,-83.174,"Single Family","Standard",4,2.5,1849,8276,1999,NA,"Inactive",430000,"2025-06-11T00:00:00.000Z","2025-07-22T00:00:00.000Z",41
"1","3145-Golden-Oak-Dr,-Hilliard,-OH-43026","3145 Golden Oak Dr, Hilliard, OH 43026","3145 Golden Oak Dr",NA,"Hilliard","OH","43026","Franklin",40.0152,-83.172,"Single Family","Standard",4,2.5,2137,10454,1999,6,"Inactive",459900,"2025-06-26T00:00:00.000Z","2025-07-22T00:00:00.000Z",26
"1","5609-Sandbrook-Ln,-Hilliard,-OH-43026","5609 Sandbrook Ln, Hilliard, OH 43026","5609 Sandbrook Ln",NA,"Hilliard","OH","43026","Franklin",40.0086,-83.1619,"Single Family","Standard",4,3,2426,8276,1989,NA,"Inactive",450000,"2025-07-19T00:00:00.000Z","2025-07-22T00:00:00.000Z",3
"1","4516-Nonius-Dr,-Hilliard,-OH-43026","4516 Nonius Dr, Hilliard, OH 43026","4516 Nonius Dr",NA,"Hilliard","OH","43026","Franklin",40.042,-83.2051,"Single Family","New Construction",3,3,2213,NA,2025,303,"Inactive",568400,"2025-04-17T00:00:00.000Z","2025-07-21T00:00:00.000Z",95
"1","3027-Landen-Farm-Rd-W,-Hilliard,-OH-43026","3027 Landen Farm Rd W, Hilliard, OH 43026","3027 Landen Farm Rd W",NA,"Hilliard","OH","43026","Franklin",40.0132,-83.1785,"Single Family","Standard",4,3,2191,10019,2001,31,"Inactive",495000,"2025-06-04T00:00:00.000Z","2025-07-21T00:00:00.000Z",47
"1","2568-Windflower-Rd-E,-Hilliard,-OH-43026","2568 Windflower Rd E, Hilliard, OH 43026","2568 Windflower Rd E",NA,"Hilliard","OH","43026","Franklin",40.0042,-83.1478,"Single Family","Standard",3,2,2108,8276,1990,NA,"Inactive",419900,"2025-06-12T00:00:00.000Z","2025-07-20T00:00:00.000Z",38
"1","2032-Melone-Dr,-Hilliard,-OH-43026","2032 Melone Dr, Hilliard, OH 43026","2032 Melone Dr",NA,"Hilliard","OH","43026","Franklin",39.9878,-83.1791,"Single Family","New Construction",4,2.5,3126,NA,NA,NA,"Inactive",614900,"2025-07-14T00:00:00.000Z","2025-07-20T00:00:00.000Z",6
"1","4587-Heather-Ridge-Dr,-Hilliard,-OH-43026","4587 Heather Ridge Dr, Hilliard, OH 43026","4587 Heather Ridge Dr",NA,"Hilliard","OH","43026","Franklin",40.0457,-83.1517,"Single Family","Standard",3,1.5,1558,8276,1990,NA,"Inactive",399900,"2025-07-13T00:00:00.000Z","2025-07-20T00:00:00.000Z",7
"1","1856-Hobbes-Dr,-Unit-73C,-Hilliard,-OH-43026","1856 Hobbes Dr, Unit 73C, Hilliard, OH 43026","1856 Hobbes Dr","Unit 73C","Hilliard","OH","43026","Franklin",39.9888,-83.1567,"Condo","Standard",2,2.5,1024,436,1994,322,"Inactive",219900,"2025-07-18T00:00:00.000Z","2025-07-20T00:00:00.000Z",2
"1","1817-Ridgebury-Dr,-Hilliard,-OH-43026","1817 Ridgebury Dr, Hilliard, OH 43026","1817 Ridgebury Dr",NA,"Hilliard","OH","43026","Franklin",39.9877,-83.1586,"Condo","Standard",2,2,1024,871,1993,311,"Inactive",199900,"2025-05-07T00:00:00.000Z","2025-07-19T00:00:00.000Z",73
"1","4526-Hoffman-Farms-Dr,-Hilliard,-OH-43026","4526 Hoffman Farms Dr, Hilliard, OH 43026","4526 Hoffman Farms Dr",NA,"Hilliard","OH","43026","Franklin",40.0433,-83.1742,"Single Family","Standard",4,3.5,2729,16117,2003,27,"Inactive",559900,"2025-05-15T00:00:00.000Z","2025-07-19T00:00:00.000Z",65
"1","3288-Foxpoint-Dr,-Hilliard,-OH-43026","3288 Foxpoint Dr, Hilliard, OH 43026","3288 Foxpoint Dr",NA,"Hilliard","OH","43026","Franklin",40.0183,-83.1554,"Single Family","Standard",3,2.5,1586,7405,1991,NA,"Inactive",378500,"2025-06-10T00:00:00.000Z","2025-07-19T00:00:00.000Z",39
"1","3088-Hemlock-Edge-Dr,-Hilliard,-OH-43026","3088 Hemlock Edge Dr, Hilliard, OH 43026","3088 Hemlock Edge Dr",NA,"Hilliard","OH","43026","Franklin",40.0134,-83.18,"Single Family","Standard",4,2.5,2672,8276,2004,29,"Inactive",579900,"2025-06-13T00:00:00.000Z","2025-07-19T00:00:00.000Z",36
"1","3820-Falls-Circle-Dr,-Unit-23,-Hilliard,-OH-43026","3820 Falls Circle Dr, Unit 23, Hilliard, OH 43026","3820 Falls Circle Dr","Unit 23","Hilliard","OH","43026","Franklin",40.0225,-83.1164,"Condo","Standard",2,2,1008,1307,1992,323,"Inactive",377800,"2025-01-25T00:00:00.000Z","2025-07-18T00:00:00.000Z",174
"1","3201-Cassey-St,-Hilliard,-OH-43026","3201 Cassey St, Hilliard, OH 43026","3201 Cassey St",NA,"Hilliard","OH","43026","Franklin",40.0168,-83.1756,"Single Family","Standard",4,2.5,2467,10454,2003,NA,"Inactive",455000,"2025-05-31T00:00:00.000Z","2025-07-18T00:00:00.000Z",48
"1","4724-Trademark-Trl,-Hilliard,-OH-43026","4724 Trademark Trl, Hilliard, OH 43026","4724 Trademark Trl",NA,"Hilliard","OH","43026","Franklin",40.0465,-83.1469,"Condo","Standard",3,4,3011,1742,2008,355,"Inactive",425000,"2025-06-10T00:00:00.000Z","2025-07-18T00:00:00.000Z",38
"1","1828-Pomodoro-Dr,-Hilliard,-OH-43026","1828 Pomodoro Dr, Hilliard, OH 43026","1828 Pomodoro Dr",NA,"Hilliard","OH","43026","Franklin",39.9881,-83.1784,"Single Family","New Construction",3,2.5,2453,NA,NA,NA,"Inactive",559900,"2025-07-14T00:00:00.000Z","2025-07-18T00:00:00.000Z",4
"1","5311-Beringer-Dr,-Hilliard,-OH-43026","5311 Beringer Dr, Hilliard, OH 43026","5311 Beringer Dr",NA,"Hilliard","OH","43026","Franklin",40.0095,-83.1539,"Single Family","Standard",3,3.5,2633,9583,1996,NA,"Inactive",424900,"2025-05-21T00:00:00.000Z","2025-07-17T00:00:00.000Z",57
"1","5706-Turner-Ln,-Hilliard,-OH-43026","5706 Turner Ln, Hilliard, OH 43026","5706 Turner Ln",NA,"Hilliard","OH","43026","Franklin",40.0083,-83.1643,"Single Family","Standard",4,3,3010,8712,1990,NA,"Inactive",479900,"2025-05-28T00:00:00.000Z","2025-07-17T00:00:00.000Z",50
"1","3624-Sparrow-Ct,-Hilliard,-OH-43026","3624 Sparrow Ct, Hilliard, OH 43026","3624 Sparrow Ct",NA,"Hilliard","OH","43026","Franklin",40.0258,-83.1946,"Single Family","Standard",4,3,4772,13068,2017,17,"Inactive",899900,"2025-06-03T00:00:00.000Z","2025-07-17T00:00:00.000Z",44
"1","3596-Sparrow-Ct,-Hilliard,-OH-43026","3596 Sparrow Ct, Hilliard, OH 43026","3596 Sparrow Ct",NA,"Hilliard","OH","43026","Franklin",40.0242,-83.1948,"Single Family","Standard",4,2.5,3185,11326,2018,17,"Inactive",719900,"2025-04-10T00:00:00.000Z","2025-07-16T00:00:00.000Z",97
